"city","state","lat","lon"
"Prairie Ridge","WA",47.1443,-122.1408
"Edison","WA",48.5602,-122.4311
"Packwood","WA",46.6085,-121.6702
"Wautauga Beach","WA",47.5862,-122.5482
"Harper","WA",47.5207,-122.5196
"Telma","WA",47.8432,-120.8157
"Kahlotus","WA",46.6437,-118.5565
"Mondovi","WA",47.6813,-118.0164
"Washtucna","WA",46.754,-118.3106
"Pleasant Hill","WA",47.6154,-121.9096
"Toledo","WA",46.4412,-122.8493
"Wabash","WA",47.2429,-122.0576
"Renton","WA",47.4758,-122.1905
"Chehalis","WA",46.6637,-122.9647
"Marcellus","WA",47.2335,-118.4053
"Central Valley","WA",47.6632,-122.6499
"Ralston","WA",46.9838,-118.3427
"Lake City","WA",47.1487,-122.5512
"Megler","WA",46.2509,-123.8576
"Alder","WA",46.7872,-122.2666
"Goose Prairie","WA",46.8951,-121.267
"Belvedere","WA",48.0499,-118.985
"Waverly","WA",47.3381,-117.2313
"Turner Corner","WA",47.8045,-122.1435
"Lofall","WA",47.8114,-122.6563
"Kennydale","WA",47.5207,-122.2068
"Easton","WA",47.2405,-121.1733
"Navy Yard City","WA",47.5508,-122.6655
"Mercer Island","WA",47.5625,-122.2265
"Lynnwood","WA",47.8285,-122.3034
"Coulee City","WA",47.612,-119.2892
"Douglas","WA",47.6212,-120.0048
"Centralia","WA",46.7226,-122.9695
"Colbert","WA",47.8266,-117.3419
"Bryn Mawr","WA",47.5034,-122.2329
"Silverdale","WA",47.6663,-122.6828
"Lyle","WA",45.6956,-121.2805
"Malott","WA",48.2919,-119.6955
"Mountlake Terrace","WA",47.792,-122.3076
"Ilwaco","WA",46.3108,-124.0422
"Fairwood","WA",47.4467,-122.143
"Warm Beach","WA",48.1649,-122.3442
"Thomas","WA",47.3537,-122.229
"Parker","WA",46.5022,-120.4668
"Steptoe","WA",47.0075,-117.3502
"Vail","WA",46.8451,-122.6562
"Magnolia Beach","WA",47.382,-122.4832
"Lakeview","WA",47.1593,-122.4982
"Shaw Island","WA",48.5843,-122.9291
"Oakesdale","WA",47.1305,-117.2465
"Rosburg","WA",46.3076,-123.6344
"Seattle","WA",47.6211,-122.3244
"Onalaska","WA",46.5783,-122.7112
"George","WA",47.0846,-119.8598
"Index","WA",47.8212,-121.5556
"Winchester","WA",47.249,-119.7198
"Chelatchie","WA",45.9279,-122.3795
"Allentown","WA",47.4943,-122.2762
"Novelty","WA",47.709,-121.9846
"Rosalia","WA",47.2363,-117.377
"Richmond Beach","WA",47.7695,-122.3901
"Lakota","WA",47.3329,-122.3723
"Liberty Lake","WA",47.6687,-117.1032
"Airway Heights","WA",47.6459,-117.5792
"Reardan","WA",47.6698,-117.8778
"Farmer","WA",47.6126,-119.812
"Brier","WA",47.7922,-122.2734
"Robe","WA",48.0973,-121.8135
"Elk Plain","WA",47.0448,-122.3671
"Port Townsend","WA",48.122,-122.7872
"Ocean City","WA",47.0762,-124.1619
"Boulevard Park","WA",47.5135,-122.3159
"Newhalem","WA",48.6737,-121.2473
"Ford","WA",47.9082,-117.8058
"Waterville","WA",47.648,-120.0707
"Quinault","WA",47.467,-123.8455
"Humptulips","WA",47.2491,-123.9348
"Hamilton","WA",48.5282,-121.9834
"Oak Harbor","WA",48.2965,-122.633
"Naches","WA",46.7274,-120.6945
"Hooper","WA",46.7749,-118.1486
"Anacortes","WA",48.4878,-122.6292
"Kettle Falls","WA",48.6055,-118.062
"Walnut Grove","WA",45.6769,-122.6072
"Salkum","WA",46.5321,-122.6259
"Cunningham","WA",46.8221,-118.8064
"Irby","WA",47.3593,-118.8511
"Electric City","WA",47.922,-119.0475
"Burbank","WA",46.1991,-118.9728
"Silver Lake","WA",46.2973,-122.8107
"Dash Point","WA",47.3131,-122.4153
"Pataha","WA",46.4732,-117.5366
"Laurel","WA",45.944,-121.3801
"Woods Creek","WA",47.8821,-121.8982
"McKenna","WA",46.9365,-122.55
"Revere","WA",47.0813,-117.9302
"Kalama","WA",46.0171,-122.8393
"Grandview","WA",46.2431,-119.9084
"Winthrop","WA",48.4716,-120.179
"Maltby","WA",47.8027,-122.1044
"Spangle","WA",47.4299,-117.3812
"Blanchard","WA",48.5934,-122.4166
"Artondale","WA",47.3023,-122.6398
"May Creek","WA",47.8555,-121.6744
"Home","WA",47.279,-122.7744
"Vashon","WA",47.4122,-122.4726
"Snoqualmie Falls","WA",47.5398,-121.8098
"Laurier","WA",48.9974,-118.2248
"Quincy","WA",47.2345,-119.852
"Lake McMurray","WA",48.3129,-122.2317
"Martha Lake","WA",47.848,-122.2326
"Ariel","WA",45.9568,-122.5709
"Loon Lake","WA",48.0685,-117.6298
"Thornton","WA",47.1207,-117.3896
"Starbuck","WA",46.5183,-118.1247
"Ronald","WA",47.2338,-121.0335
"Kelso","WA",46.1248,-122.8908
"Meadowdale","WA",47.8583,-122.3156
"Cottage Lake","WA",47.7466,-122.0755
"Cheney","WA",47.4902,-117.5789
"Woodway","WA",47.7903,-122.3851
"Lacey","WA",47.045,-122.7931
"Harrah","WA",46.407,-120.5423
"Allyn","WA",47.3863,-122.8386
"South Bend","WA",46.668,-123.8008
"Barstow","WA",48.7783,-118.1329
"Tiger","WA",48.6916,-117.4077
"Warden","WA",46.9681,-119.0515
"Junction City","WA",46.9713,-123.7651
"Blyn","WA",48.0131,-122.9897
"Lakebay","WA",47.257,-122.7585
"Tahuya","WA",47.3712,-123.0557
"Waukon","WA",47.5396,-117.8433
"Kitsap Lake","WA",47.5829,-122.7085
"Sultan","WA",47.8702,-121.8041
"Plain","WA",47.7626,-120.6573
"Tanner","WA",47.4813,-121.6922
"Stehekin","WA",48.3093,-120.6565
"Edmonds","WA",47.8114,-122.3533
"North Hill","WA",47.4193,-122.3235
"Zillah","WA",46.4083,-120.2718
"Monse","WA",48.1413,-119.6778
"Lake Forest Park","WA",47.7596,-122.2879
"Chinook","WA",46.2755,-123.9425
"Albion","WA",46.7916,-117.2511
"Skykomish","WA",47.7103,-121.3584
"Yakima","WA",46.5923,-120.5496
"Pacific","WA",47.261,-122.2507
"Wishram","WA",45.6599,-120.9698
"Cascade Valley","WA",47.1371,-119.3272
"Cathcart","WA",47.8525,-122.1058
"Brush Prairie","WA",45.725,-122.5483
"Amboy","WA",45.9122,-122.4795
"Centerville","WA",45.754,-120.9081
"Verlot","WA",48.1002,-121.7679
"Alstown","WA",47.561,-119.9951
"Synarep","WA",48.521,-119.3309
"Annapolis","WA",47.5476,-122.6207
"Port Gamble","WA",47.8543,-122.5838
"Eatonville","WA",46.8682,-122.2697
"Similk Beach","WA",48.4479,-122.5779
"Cougar","WA",46.0515,-122.2995
"Eglon","WA",47.8626,-122.5146
"Paterson","WA",45.9371,-119.6028
"Tenino","WA",46.8537,-122.8607
"Minnehaha","WA",45.6577,-122.6204
"Raymond","WA",46.6838,-123.7381
"Alger","WA",48.6176,-122.3369
"Roy","WA",46.9971,-122.5423
"Almira","WA",47.7105,-118.9369
"Fragaria","WA",47.464,-122.5312
"Green Bluff","WA",47.819,-117.277
"Woodmont Beach","WA",47.3615,-122.3121
"Frances","WA",46.5423,-123.5049
"Lynden","WA",48.9503,-122.4544
"Clayton","WA",48.0012,-117.5611
"Everson","WA",48.9123,-122.351
"White Swan","WA",46.3769,-120.7382
"Camano","WA",48.1865,-122.4708
"Cedar Grove","WA",47.4357,-122.0621
"Winton","WA",47.7354,-120.7412
"East Olympia","WA",46.9676,-122.8357
"Sunset Beach","WA",47.2182,-122.5726
"Belfair","WA",47.4512,-122.8473
"Oso","WA",48.2836,-121.9238
"Federal Way","WA",47.309,-122.3359
"Scandia","WA",47.7165,-122.6579
"Quilcene","WA",47.8369,-122.9058
"Covada","WA",48.2204,-118.2089
"Keyport","WA",47.6993,-122.6232
"Juanita","WA",47.7032,-122.2071
"Molson","WA",48.981,-119.2006
"Daisy","WA",48.3613,-118.16
"Sumas","WA",48.9956,-122.2695
"Mill Creek","WA",47.8633,-122.2034
"Lakewood","WA",47.1628,-122.5299
"Venersborg","WA",45.786,-122.4721
"West Lake Sammamish","WA",47.5776,-122.1012
"Port Angeles","WA",48.1142,-123.4565
"Longview","WA",46.146,-122.963
"Fairmont","WA",47.902,-122.2543
"Wapato","WA",46.4434,-120.4215
"East Port Orchard","WA",47.5193,-122.6183
"North Omak","WA",48.444,-119.4459
"East Farms","WA",47.7074,-117.0524
"Eschbach","WA",46.667,-120.6337
"Chattaroy","WA",47.8896,-117.3577
"Inchelium","WA",48.3378,-118.2372
"Maxwelton","WA",47.9373,-122.4443
"White Center","WA",47.5086,-122.348
"Medical Lake","WA",47.5713,-117.6893
"Lyman","WA",48.523,-122.0634
"Arlington","WA",48.1697,-122.1446
"Ruston","WA",47.2982,-122.51
"McCleary","WA",47.0584,-123.2723
"Sammamish","WA",47.6019,-122.0419
"Covington","WA",47.3668,-122.1044
"McMillin","WA",47.1286,-122.2374
"La Grande","WA",46.8199,-122.2962
"Cromwell","WA",47.2743,-122.6224
"Berrydale","WA",47.3398,-122.1279
"Wenatchee","WA",47.4338,-120.3285
"Urban","WA",48.6179,-122.6921
"Maplewood","WA",47.3715,-122.5689
"Marys Corner","WA",46.5471,-122.8226
"Mattawa","WA",46.7364,-119.9019
"Cove","WA",47.452,-122.5079
"Chico","WA",47.6234,-122.7198
"Maple Falls","WA",48.9135,-122.1049
"Colvos","WA",47.4762,-122.4907
"Ames Lake","WA",47.6346,-121.9664
"Ellisforde","WA",48.7899,-119.4012
"Selah","WA",46.6482,-120.5389
"Pine Lake","WA",47.5787,-122.0462
"Tampico","WA",46.5325,-120.8727
"Colton","WA",46.5675,-117.1285
"Usk","WA",48.3138,-117.2797
"Cle Elum","WA",47.1946,-120.9553
"Omak","WA",48.4227,-119.5159
"Eureka","WA",46.3032,-118.6167
"Harrington","WA",47.4802,-118.2553
"Sedro-Woolley","WA",48.5113,-122.232
"Cherry Grove","WA",45.8021,-122.5764
"La Push","WA",47.9087,-124.6366
"Lake Ketchum","WA",48.282,-122.348
"Arletta","WA",47.2901,-122.6676
"Opportunity","WA",47.6574,-117.2399
"Glenoma","WA",46.5146,-122.1601
"Curlew","WA",48.8777,-118.6045
"Hartline","WA",47.6894,-119.1081
"Midland","WA",47.1734,-122.412
"Adna","WA",46.629,-123.0612
"Roslyn","WA",47.2507,-121.0987
"Deer Park","WA",47.9642,-117.4397
"Tracyton","WA",47.6095,-122.6533
"Hunts Point","WA",47.642,-122.229
"Koontzville","WA",48.0157,-118.9472
"Fruitland","WA",48.071,-118.1989
"Chewelah","WA",48.2929,-117.7336
"Mohler","WA",47.4049,-118.3291
"East Renton Highlands","WA",47.4718,-122.0854
"Sunnyside","WA",46.3159,-120.0058
"Long Lake","WA",47.836,-117.8488
"Wauna","WA",47.3861,-122.6693
"Liberty","WA",47.2537,-120.6654
"Normandy Park","WA",47.4344,-122.3436
"Mirrormont","WA",47.4616,-121.9936
"Parkwood","WA",47.5265,-122.5986
"Jamestown","WA",48.1229,-123.0911
"Forks","WA",47.9526,-124.3904
"Wallula","WA",46.0847,-118.9056
"Nighthawk","WA",48.9665,-119.642
"SeaTac","WA",47.4445,-122.2986
"Royal City","WA",46.9,-119.6142
"Beaux Arts Village","WA",47.5854,-122.2009
"Steilacoom","WA",47.17,-122.5935
"Northport","WA",48.9159,-117.7796
"Eldon","WA",47.5454,-123.046
"Ridgefield","WA",45.8116,-122.7052
"Ryderwood","WA",46.3749,-123.0441
"Manchester","WA",47.5519,-122.5517
"Vashon Heights","WA",47.5057,-122.4654
"Salmon Creek","WA",45.7099,-122.6632
"Vantage","WA",46.9453,-119.9923
"Creston","WA",47.7596,-118.5201
"Soap Lake","WA",47.3914,-119.4892
"Silver Firs","WA",47.8635,-122.1497
"Plaza","WA",47.3202,-117.3838
"Machias","WA",47.9917,-122.0515
"Neah Bay","WA",48.3612,-124.6115
"Malo","WA",48.7998,-118.6119
"Clyde Hill","WA",47.6303,-122.218
"Marlin","WA",47.4074,-118.985
"North Yelm","WA",46.9647,-122.6028
"Grand Coulee","WA",47.9391,-119.0031
"Outlook","WA",46.3311,-120.0923
"Clinton","WA",47.9731,-122.3577
"Evans","WA",48.7135,-118.0253
"Browns Point","WA",47.3036,-122.4369
"Kennewick","WA",46.1979,-119.1732
"North Marysville","WA",48.1112,-122.1459
"Beaver Valley","WA",47.9259,-122.7302
"Ahtanum","WA",46.5581,-120.6099
"Carbonado","WA",47.0805,-122.0536
"Hyak","WA",47.3929,-121.3929
"Arlington Heights","WA",48.2119,-122.0631
"North Sultan","WA",47.8827,-121.8251
"Pullman","WA",46.7342,-117.1661
"Wymer","WA",46.826,-120.4598
"Adelaide","WA",47.3309,-122.3604
"Peaceful Valley","WA",48.9477,-122.1406
"West Richland","WA",46.3115,-119.3997
"Fife Heights","WA",47.2593,-122.3457
"Manson","WA",47.8858,-120.1563
"Sprague","WA",47.3048,-117.9713
"Cosmopolis","WA",46.9541,-123.7725
"Redondo","WA",47.3484,-122.3235
"Waller","WA",47.2035,-122.3699
"Addy","WA",48.3588,-117.8372
"Matlock","WA",47.2379,-123.4079
"Longbranch","WA",47.2257,-122.7739
"North Bonneville","WA",45.6425,-121.9689
"Pomeroy","WA",46.4737,-117.5967
"Colville","WA",48.5454,-117.8986
"Palmer","WA",47.3143,-121.8923
"Skyway","WA",47.4915,-122.2543
"Medina","WA",47.6256,-122.2338
"Algona","WA",47.282,-122.2503
"Nine Mile Falls","WA",47.7757,-117.5461
"Black Diamond","WA",47.313,-122.0181
"Gold Bar","WA",47.8566,-121.6927
"Mesa","WA",46.5737,-119.0013
"Cavalero Corner","WA",47.9782,-122.1349
"Lilliwaup","WA",47.4634,-123.1143
"La Conner","WA",48.3927,-122.4945
"Sheridan Beach","WA",47.7448,-122.2882
"Emden","WA",47.1046,-118.1227
"Markham","WA",46.9155,-123.9814
"Eltopia","WA",46.4587,-119.0172
"Stevenson","WA",45.6943,-121.8932
"Greenwater","WA",47.1465,-121.632
"Copalis Beach","WA",47.1205,-124.1722
"Roosevelt","WA",47.8923,-122.0123
"La Crosse","WA",46.8014,-117.9026
"Summit","WA",47.1694,-122.3628
"Ohop","WA",46.9457,-122.1907
"Malden","WA",47.2296,-117.4731
"Beverly","WA",46.8368,-119.9331
"Prosser","WA",46.2066,-119.7662
"Lake Roesiger","WA",47.9839,-121.9129
"Fern Prairie","WA",45.637,-122.3963
"Maple Valley","WA",47.366,-122.0369
"Gifford","WA",48.3063,-118.1464
"Auburn","WA",47.3041,-122.211
"Burton","WA",47.389,-122.4607
"Kewa","WA",48.201,-118.2786
"Carrolls","WA",46.0715,-122.8623
"Bayne","WA",47.2951,-121.9096
"East Cathlamet","WA",46.1968,-123.358
"Purdy","WA",47.3938,-122.6114
"Kapowsin","WA",46.9727,-122.2272
"Ketron","WA",47.1569,-122.6343
"Connell","WA",46.6626,-118.8404
"Lincoln","WA",47.829,-118.415
"Clear Lake","WA",48.4561,-122.2378
"Kittitas","WA",46.9837,-120.4192
"Bucoda","WA",46.7968,-122.868
"Ardenvoir","WA",47.7373,-120.369
"Ellisport","WA",47.4204,-122.4354
"Bainbridge Island","WA",47.6439,-122.5434
"Danville","WA",48.9938,-118.5068
"Hazelwood","WA",47.5509,-122.1915
"Holly","WA",47.5576,-122.9785
"Valley","WA",48.173,-117.7245
"Republic","WA",48.6477,-118.7326
"Odessa","WA",47.3326,-118.6895
"Edgewood","WA",47.2309,-122.2832
"Burlington","WA",48.4677,-122.3298
"Rice","WA",48.4288,-118.1703
"Marengo","WA",47.0257,-118.1886
"Cusick","WA",48.3328,-117.2962
"Virginia","WA",47.7073,-122.6374
"Concrete","WA",48.5371,-121.7512
"Langley","WA",48.0337,-122.4084
"Othello","WA",46.8222,-119.1651
"North City","WA",47.7557,-122.3135
"Hazel Dell","WA",45.6797,-122.6553
"Colfax","WA",46.9031,-117.3394
"Metaline","WA",48.854,-117.3899
"Randle","WA",46.5351,-121.957
"Millwood","WA",47.6856,-117.2806
"Snoqualmie Pass","WA",47.4014,-121.411
"Bangor","WA",47.7209,-122.746
"Thorp","WA",47.0655,-120.6709
"Tahlequah","WA",47.3326,-122.5073
"Prescott","WA",46.2988,-118.3125
"Buckley","WA",47.1615,-122.02
"Dalkena","WA",48.2449,-117.2377
"Leland","WA",47.8918,-122.8866
"Fruitvale","WA",46.6179,-120.5531
"Port Hadlock","WA",48.0318,-122.7582
"University Place","WA",47.2148,-122.546
"Morton","WA",46.5575,-122.2815
"Deep River","WA",46.3521,-123.6984
"Elberton","WA",46.9813,-117.2213
"Kingston","WA",47.8014,-122.4989
"Silverton","WA",48.0784,-121.5671
"Vader","WA",46.4045,-122.9569
"Donald","WA",46.4737,-120.3923
"Miles","WA",47.9107,-118.2925
"Asotin","WA",46.3371,-117.0433
"Joyce","WA",48.1365,-123.7341
"Eagledale","WA",47.6143,-122.5154
"Port Ludlow","WA",47.9101,-122.7006
"Loomis","WA",48.8235,-119.6398
"New London","WA",47.0573,-123.9271
"Desert Aire","WA",46.6873,-119.9311
"Poulsbo","WA",47.7417,-122.6407
"Cedonia","WA",48.1538,-118.1692
"Union","WA",47.3475,-123.0952
"Suquamish","WA",47.7237,-122.583
"Deep Creek","WA",47.6429,-117.7122
"Yoman","WA",47.1865,-122.7062
"Cordell","WA",48.8665,-119.412
"Hoquiam","WA",46.9863,-123.9023
"Hay","WA",46.6788,-117.9158
"Nespelem","WA",48.167,-118.9722
"Ephrata","WA",47.3119,-119.5344
"Kent","WA",47.3887,-122.2128
"Mukilteo","WA",47.9094,-122.3035
"Boise","WA",47.1804,-122.0157
"Kirkland","WA",47.6997,-122.2041
"Waitsburg","WA",46.2696,-118.151
"Ridgecrest","WA",47.7473,-122.3179
"Freeman","WA",47.5182,-117.1958
"Dallesport","WA",45.6316,-121.1749
"Redmond","WA",47.6762,-122.1166
"Wilkeson","WA",47.1034,-122.0495
"Sisco Heights","WA",48.1188,-122.1076
"Lewisville","WA",45.8127,-122.5144
"Kennard Corner","WA",47.8201,-122.2076
"Benge","WA",46.9093,-118.1025
"Granger","WA",46.3455,-120.1925
"Yarrow Point","WA",47.6452,-122.2179
"Lost Creek","WA",48.6094,-117.3636
"Moxee City","WA",46.5537,-120.3831
"Hockinson","WA",45.7301,-122.4833
"Oakville","WA",46.8403,-123.2333
"Tukwila","WA",47.4748,-122.2727
"Mabana","WA",48.0945,-122.4151
"Kangley","WA",47.3618,-121.8801
"Clallam Bay","WA",48.2536,-124.2579
"Newport","WA",48.179,-117.0549
"Enetai","WA",47.5885,-122.6058
"Clearview","WA",47.8292,-122.1452
"Sahalee","WA",47.6348,-122.0554
"Yelm","WA",46.9398,-122.6261
"Midway","WA",47.3048,-122.5896
"Olympia","WA",47.0418,-122.8959
"Endicott","WA",46.9282,-117.6868
"Lind","WA",46.9703,-118.6162
"Fife","WA",47.2328,-122.3517
"Newport Hills","WA",47.5409,-122.1765
"Upper Mill","WA",47.1934,-121.9271
"Upper Preston","WA",47.5051,-121.9076
"Pateros","WA",48.0536,-119.8994
"Nordland","WA",48.0509,-122.691
"Tyler","WA",47.436,-117.7835
"Camden","WA",48.0474,-117.2399
"Palisades","WA",47.419,-119.9145
"Rockport","WA",48.4854,-121.6065
"Port Orchard","WA",47.516,-122.6615
"Preston","WA",47.5237,-121.9271
"Tieton","WA",46.7026,-120.756
"Rochester","WA",46.8288,-123.0722
"Bingen","WA",45.7139,-121.4704
"Harbour Pointe","WA",47.8857,-122.3051
"Wellpinit","WA",47.8879,-117.988
"Glacier","WA",48.8902,-121.9323
"Farmington","WA",47.0887,-117.0464
"Eastsound","WA",48.6968,-122.9055
"Central Park","WA",46.9705,-123.7018
"Bremerton","WA",47.5436,-122.7122
"Friday Harbor","WA",48.5324,-123.0656
"Carnation","WA",47.6446,-121.9048
"Lake Shore","WA",45.6911,-122.6911
"Houghton","WA",47.6609,-122.206
"Lester","WA",47.2093,-121.494
"Lake Stevens","WA",48.0029,-122.096
"Mineral","WA",46.7193,-122.1859
"Lake Stickney","WA",47.8709,-122.2596
"Acme","WA",48.7146,-122.2293
"Oyehut","WA",47.0232,-124.1631
"Mossyrock","WA",46.5305,-122.4887
"Bridgeport","WA",48.0063,-119.6737
"Fobes Hill","WA",47.9391,-122.1341
"Rosario","WA",48.6487,-122.876
"Brewster","WA",48.1034,-119.7751
"Fox Island","WA",47.2475,-122.6255
"Canyon Park","WA",47.7909,-122.1926
"Rock Island","WA",47.3743,-120.1382
"High Rock","WA",47.8129,-121.9826
"Rockford","WA",47.4513,-117.1307
"Erlands Point","WA",47.5998,-122.6929
"Montesano","WA",47.0102,-123.5858
"Gorst","WA",47.5237,-122.7057
"Johnson","WA",46.6316,-117.1379
"Alderton","WA",47.1718,-122.2192
"Dusty","WA",46.8102,-117.6519
"Tekoa","WA",47.2247,-117.0731
"Bay Center","WA",46.6211,-123.9533
"La Center","WA",45.8586,-122.6767
"Mazama","WA",48.5921,-120.404
"Selleck","WA",47.3757,-121.8684
"Amanda Park","WA",47.4532,-123.9194
"Doris","WA",46.8676,-120.0098
"Sunnydale","WA",47.4632,-122.3337
"Van Zandt","WA",48.789,-122.1918
"McDonald","WA",47.0713,-119.2156
"Moclips","WA",47.2348,-124.2025
"Ocean Park","WA",46.4961,-124.0443
"West Valley","WA",46.5921,-120.6051
"Thompson Place","WA",47.0554,-122.7835
"Dungeness","WA",48.1468,-123.1232
"Birch Bay","WA",48.923,-122.7543
"Stratford","WA",47.4268,-119.2816
"Ione","WA",48.7402,-117.4223
"Tacoma","WA",47.2431,-122.4531
"Barberton","WA",45.7136,-122.6114
"Yacolt","WA",45.865,-122.4059
"Coulee Dam","WA",47.9688,-118.9761
"Almota","WA",46.7029,-117.4694
"Skamokawa","WA",46.2704,-123.4571
"Woodinville","WA",47.7569,-122.1478
"Swinomish Village","WA",48.4082,-122.5113
"Methow","WA",48.1289,-120.0056
"Bay View","WA",48.487,-122.4628
"Newaukum","WA",47.2573,-122.1018
"Kalaloch","WA",47.6045,-124.3724
"Meadow Glade","WA",45.7524,-122.5614
"Disautel","WA",48.345,-119.2299
"Copalis Crossing","WA",47.1079,-124.0693
"Burley","WA",47.4166,-122.6377
"Riverside","WA",48.5047,-119.5102
"Ocean Shores","WA",46.9685,-124.1521
"Bethel","WA",47.4874,-122.6175
"Grisdale","WA",47.357,-123.6124
"South Hill","WA",47.1203,-122.2848
"Island View","WA",46.2393,-119.2233
"Winona","WA",46.9457,-117.8005
"Leadpoint","WA",48.9094,-117.5875
"Brooklyn","WA",46.7762,-123.5099
"Mansfield","WA",47.8119,-119.638
"Sequim","WA",48.0747,-123.0944
"Esperance","WA",47.7937,-122.3469
"Springdale","WA",48.0572,-117.7466
"Okanogan","WA",48.3671,-119.5783
"Cedar Mountain","WA",47.4482,-122.0732
"Moses Lake","WA",47.1285,-119.2741
"Littlerock","WA",46.9018,-123.0179
"Trentwood","WA",47.6966,-117.2108
"Mabton","WA",46.2115,-119.9938
"Klickitat","WA",45.818,-121.1626
"Puyallup","WA",47.1794,-122.2902
"Cinebar","WA",46.6043,-122.5318
"San de Fuca","WA",48.2351,-122.7232
"Cathlamet","WA",46.2056,-123.3835
"Richardson","WA",48.4515,-122.8988
"Sumner","WA",47.2189,-122.2338
"Davenport","WA",47.6551,-118.1519
"Cliffdell","WA",46.9213,-121.042
"Fall City","WA",47.5717,-121.9134
"Dockton","WA",47.3718,-122.4593
"Conway","WA",48.3356,-122.3444
"Marshall","WA",47.5649,-117.4994
"Walla Walla","WA",46.067,-118.3365
"Canterwood","WA",47.3766,-122.6022
"Lexington","WA",46.1873,-122.9054
"Country Homes","WA",47.7478,-117.4196
"Altoona","WA",46.2699,-123.6144
"South Cle Elum","WA",47.1862,-120.9525
"Waldron","WA",48.6876,-123.0369
"Chesaw","WA",48.946,-119.0514
"Sunnyslope","WA",47.5045,-122.729
"Olympic View","WA",47.694,-122.7404
"Hood","WA",45.7248,-121.5581
"Elbe","WA",46.7652,-122.1946
"Venice","WA",47.667,-122.5799
"Cumberland","WA",47.2829,-121.9271
"Ostrander","WA",46.1926,-122.8921
"Cohassett Beach","WA",46.8655,-124.1053
"Deming","WA",48.8381,-122.2313
"Sekiu","WA",48.2637,-124.3012
"Terrace Heights","WA",46.6024,-120.4482
"Nemah","WA",46.512,-123.886
"Neilton","WA",47.4031,-123.8782
"Grays River","WA",46.3608,-123.589
"Ashford","WA",46.7537,-122.0113
"Boistfort","WA",46.5351,-123.1337
"Shore Acres","WA",47.3104,-122.5715
"Bothell","WA",47.7736,-122.2044
"South Broadway","WA",46.5662,-120.5167
"Edwall","WA",47.5046,-117.9511
"Georgetown","WA",47.3576,-121.9737
"Maryhill","WA",45.6928,-120.807
"Huntsville","WA",46.2871,-118.1072
"Greenbank","WA",48.0982,-122.5729
"Murphys Corner","WA",47.8782,-122.2068
"Tokeland","WA",46.709,-123.984
"Felida","WA",45.7138,-122.7103
"Fairview","WA",47.6215,-122.6685
"Tumwater","WA",46.989,-122.9172
"Uniontown","WA",46.5391,-117.0861
"Coupeville","WA",48.2172,-122.6775
"River Road","WA",48.0677,-123.1276
"Duvall","WA",47.7354,-121.9725
"Marcus","WA",48.6642,-118.0601
"Seattle Heights","WA",47.8104,-122.324
"Strandell","WA",48.9121,-122.3582
"Key Center","WA",47.3376,-122.7506
"Hanford","WA",46.5837,-119.3878
"Grand Mound","WA",46.8053,-123.0119
"Taholah","WA",47.3283,-124.2728
"Port Blakely","WA",47.5973,-122.5101
"Malone","WA",46.9779,-123.3035
"Boston Harbor","WA",47.1384,-122.901
"Rainier","WA",46.8917,-122.6867
"Menlo","WA",46.6215,-123.6471
"Azwell","WA",47.9371,-119.8765
"Glendale","WA",47.9395,-122.3585
"Monroe","WA",47.8596,-121.9853
"Sawyer","WA",46.4565,-120.3614
"Clarkston","WA",46.4152,-117.0502
"Spanaway","WA",47.0979,-122.4233
"Gig Harbor","WA",47.3353,-122.5968
"Big Lake","WA",48.3933,-122.2422
"Smyrna","WA",46.8393,-119.6623
"Carlton","WA",48.2482,-120.1162
"Monitor","WA",47.4868,-120.4181
"Des Moines","WA",47.3914,-122.3154
"Lucerne","WA",48.2024,-120.5912
"Carlisle","WA",47.1548,-124.0985
"Metaline Falls","WA",48.8616,-117.3705
"Breidablick","WA",47.802,-122.6493
"Snohomish","WA",47.9277,-122.097
"Richland","WA",46.2826,-119.2938
"Parkland","WA",47.1417,-122.4376
"Veradale","WA",47.6568,-117.1963
"Kummer","WA",47.2868,-122.0212
"Woodland","WA",45.9149,-122.7504
"Washougal","WA",45.5812,-122.3433
"Boyds","WA",48.7244,-118.1322
"Bonney Lake","WA",47.1788,-122.1699
"South Prairie","WA",47.1373,-122.094
"Larimers Corner","WA",47.8918,-122.1446
"Porter","WA",46.9489,-123.2736
"Lisabeula","WA",47.4073,-122.5176
"Saint John","WA",47.0915,-117.5887
"Spokane Valley","WA",47.6625,-117.2346
"Lake Cavanaugh","WA",48.3225,-122.0121
"Bellevue","WA",47.5953,-122.1551
"Custer","WA",48.9143,-122.6397
"Orcas","WA",48.5979,-122.9446
"Diablo","WA",48.7135,-121.1412
"Christopher","WA",47.334,-122.2321
"Midvale Corner","WA",47.9926,-122.4176
"Marysville","WA",48.0809,-122.1558
"Newcastle","WA",47.5303,-122.1633
"North Bend","WA",47.4898,-121.7738
"Snoqualmie","WA",47.5293,-121.8412
"Three Lakes","WA",47.942,-121.9924
"Kendall","WA",48.9167,-122.1382
"Kanaskat","WA",47.3204,-121.8937
"Schrag","WA",47.0732,-118.8542
"Wilbur","WA",47.7582,-118.7115
"Enumclaw","WA",47.2017,-121.9897
"Nile","WA",46.8368,-120.9455
"Alderwood Manor","WA",47.8146,-122.2677
"Clarkston Heights","WA",46.3963,-117.0824
"Pacific Beach","WA",47.215,-124.1967
"Napavine","WA",46.5844,-122.9007
"Hatton","WA",46.7735,-118.8277
"Shelton","WA",47.2188,-123.1127
"Chimacum","WA",48.0109,-122.7688
"Naselle","WA",46.365,-123.8013
"Grotto","WA",47.7362,-121.4234
"Sunrise Beach","WA",47.3234,-122.6979
"Bellingham","WA",48.7543,-122.4687
"Castle Rock","WA",46.2718,-122.9057
"Pine City","WA",47.2024,-117.5244
"Nooksack","WA",48.9276,-122.3212
"Elma","WA",47.0074,-123.4055
"Kenmore","WA",47.7532,-122.2459
"Ellensburg","WA",46.9994,-120.547
"Belmont","WA",47.0879,-117.1624
"DuPont","WA",47.1079,-122.6496
"Long Beach","WA",46.3559,-124.0557
"Seabeck","WA",47.6437,-122.8219
"Granite Falls","WA",48.0874,-121.9704
"Tonasket","WA",48.708,-119.4417
"Otis Orchards","WA",47.7005,-117.1063
"Milton","WA",47.2522,-122.3154
"West Pasco","WA",46.2497,-119.1684
"Badger","WA",46.2001,-119.3595
"Lamont","WA",47.2007,-117.9049
"Ravensdale","WA",47.3563,-121.9692
"Rollingbay","WA",47.6645,-122.5101
"Rocky Point","WA",47.5875,-122.6665
"Garrett","WA",46.0633,-118.3876
"Palouse","WA",46.9103,-117.0751
"Grayland","WA",46.8304,-124.0898
"Gilberton","WA",47.639,-122.6049
"Withrow","WA",47.7049,-119.8087
"Stanwood","WA",48.2448,-122.3431
"Ayer","WA",46.5963,-118.3483
"Sudden Valley","WA",48.7199,-122.3468
"Meridian","WA",47.6695,-122.3304
"Aberdeen Gardens","WA",47.0587,-123.7791
"Possession","WA",47.9176,-122.3762
"Benton City","WA",46.2624,-119.4814
"Bickleton","WA",46.0056,-120.3081
"Elmer City","WA",48,-118.9534
"Doty","WA",46.6345,-123.2776
"East Wenatchee","WA",47.4172,-120.2809
"Newman Lake","WA",47.7768,-117.0949
"Freeland","WA",48.0185,-122.5358
"Indianola","WA",47.7566,-122.5142
"Cowiche","WA",46.6729,-120.7154
"Husum","WA",45.7993,-121.487
"Alderdale","WA",45.8349,-119.9209
"Lamona","WA",47.3593,-118.4825
"Skokomish","WA",47.3298,-123.1579
"Vaughn","WA",47.355,-122.7773
"Ruby","WA",48.5221,-117.2991
"Bryant","WA",48.24,-122.1638
"Coalfield","WA",47.5026,-122.1218
"Swede Heaven","WA",48.2829,-121.7136
"Spokane","WA",47.6671,-117.433
"Brady","WA",47.0064,-123.5321
"Spring Glen","WA",47.5612,-121.8615
"Hoodsport","WA",47.402,-123.1542
"Leavenworth","WA",47.5948,-120.6633
"Tanglewilde","WA",47.0512,-122.7809
"Bow","WA",48.5618,-122.3982
"Carlsborg","WA",48.0842,-123.1697
"North Lynnwood","WA",47.8533,-122.2762
"Cedar Falls","WA",47.4254,-121.7768
"Chelan","WA",47.8417,-120.027
"Wilson Creek","WA",47.423,-119.1176
"Latah","WA",47.2822,-117.1557
"Brownsville","WA",47.6557,-122.6165
"Amber","WA",47.3518,-117.7116
"Zenith","WA",47.3865,-122.3232
"Goodnoe Hills","WA",45.7512,-120.4803
"Camas","WA",45.6003,-122.4306
"Olalla","WA",47.4293,-122.5457
"Basin City","WA",46.5891,-119.1567
"Blaine","WA",48.9839,-122.7414
"Oroville","WA",48.9421,-119.4304
"Orchards","WA",45.6888,-122.5305
"Union Gap","WA",46.5567,-120.4969
"Mead","WA",47.7795,-117.35
"Manzanita","WA",47.6762,-122.5596
"Pasco","WA",46.2503,-119.1298
"Touchet","WA",46.0412,-118.6724
"Pe Ell","WA",46.5712,-123.2982
"Baring","WA",47.7661,-121.4803
"Sappho","WA",48.0701,-124.2794
"Hunters","WA",48.1168,-118.2019
"Gleed","WA",46.6594,-120.6025
"Fairfield","WA",47.3848,-117.1748
"Torboy","WA",48.6772,-118.6689
"Cashmere","WA",47.5175,-120.4671
"Willapa","WA",46.6755,-123.6648
"Issaquah","WA",47.5421,-122.0445
"Toppenish","WA",46.3807,-120.3124
"Finley","WA",46.1697,-119.0446
"Darrington","WA",48.2546,-121.6029
"Picnic Point","WA",47.8745,-122.3079
"Aeneas","WA",48.5474,-118.9786
"Cedarhurst","WA",47.482,-122.4793
"Four Lakes","WA",47.5582,-117.5891
"Dayton","WA",46.3168,-117.977
"Port Madison","WA",47.7026,-122.5243
"Orting","WA",47.0966,-122.2111
"Wheeler","WA",47.1307,-119.172
"Fircrest","WA",47.2308,-122.5157
"Lebam","WA",46.5641,-123.551
"Marrowstone","WA",48.0568,-122.6933
"North Puyallup","WA",47.2015,-122.2742
"Five Corners","WA",45.6882,-122.574
"Graham","WA",47.0407,-122.2757
"Longview Heights","WA",46.1796,-122.9577
"Hobart","WA",47.412,-121.996
"Point Roberts","WA",48.9883,-123.0576
"Town and Country","WA",47.7259,-117.4221
"Lake Hills","WA",47.6134,-122.1215
"Rosedale","WA",47.3453,-122.6376
"Irondale","WA",48.042,-122.7727
"Dishman","WA",47.6568,-117.2833
"Bayview","WA",47.2795,-122.6057
"Conconully","WA",48.5571,-119.7513
"Entiat","WA",47.678,-120.2175
"Lochsloy","WA",48.0597,-122.0411
"Brinnon","WA",47.669,-122.9248
"Seahurst","WA",47.4693,-122.3621
"Dixie","WA",46.1392,-118.148
"Eastgate","WA",47.5727,-122.1458
"Blockhouse","WA",45.8396,-120.9376
"Buena","WA",46.4299,-120.3176
"Grapeview","WA",47.3316,-122.8413
"Startup","WA",47.8671,-121.7495
"Hayford","WA",47.6063,-117.5638
"Bell Hill","WA",48.055,-123.087
"Westport","WA",46.8919,-124.1121
"Southworth","WA",47.5126,-122.5298
"Twisp","WA",48.3619,-120.1171
"Milan","WA",47.9668,-117.3316
"Ritzville","WA",47.1254,-118.3809
"Lake Goodwin","WA",48.1387,-122.2804
"McMurray","WA",48.3162,-122.2354
"Portage","WA",47.4073,-122.4376
"Lake Bosworth","WA",48.0532,-121.9812
"Fords Prairie","WA",46.7461,-123.0029
"Longmire","WA",46.7498,-121.8126
"Carson","WA",45.7353,-121.8219
"Mount Vista","WA",45.7373,-122.6315
"Vancouver","WA",45.6352,-122.597
"Chelan Falls","WA",47.7994,-119.9883
"Espanola","WA",47.6032,-117.7416
"Battle Ground","WA",45.7764,-122.5413
"Summitview","WA",46.598,-120.6514
"Geneva","WA",48.7461,-122.4064
"Queets","WA",47.5314,-124.3385
"Wollochet","WA",47.2828,-122.5769
"College Place","WA",46.0431,-118.3869
"Garfield","WA",47.0103,-117.1395
"Ruff","WA",47.1696,-118.9983
"Ewan","WA",47.1168,-117.7349
"Glenwood","WA",46.0227,-121.2926
"Riverbend","WA",47.4651,-121.7491
"Trout Lake","WA",45.9975,-121.529
"Mount Vernon","WA",48.4202,-122.3116
"Ferndale","WA",48.8525,-122.5892
"Hansville","WA",47.8978,-122.5579
"Wickersham","WA",48.6551,-122.2129
"White Salmon","WA",45.7282,-121.4853
"Oysterville","WA",46.549,-124.0282
"Aberdeen","WA",46.9757,-123.8095
"Melbourne","WA",46.9454,-123.626
"Plymouth","WA",45.9346,-119.3503
"Winlock","WA",46.4906,-122.9342
"Satsop","WA",47.0223,-123.4737
"Merritt","WA",47.781,-120.8432
"Shoreline","WA",47.7564,-122.3426
"Peshastin","WA",47.5707,-120.604
"Marble","WA",48.8491,-117.9017
"South Snohomish","WA",47.899,-122.109
"Richmond Highlands","WA",47.7612,-122.3462
"Goldendale","WA",45.8192,-120.8233
"Nisqually","WA",47.0565,-122.7012
"Tillicum","WA",47.1234,-122.5571
"Anatone","WA",46.1349,-117.1324
"Tulalip","WA",48.0684,-122.2918
"Orient","WA",48.8637,-118.2059
"Dieringer","WA",47.2407,-122.2251
"Frederickson","WA",47.0914,-122.3594
"Keller","WA",48.0852,-118.7165
"Marblemount","WA",48.5378,-121.4346
"Turner","WA",46.4124,-117.8547
"Silvana","WA",48.2018,-122.246
"Everett","WA",47.9524,-122.167
"Burien","WA",47.4762,-122.3393
"Riner","VA",37.0676,-80.4405
"Powhatan","VA",37.5427,-77.9267
"Natural Bridge","VA",37.6301,-79.5431
"Chamberlayne Heights","VA",37.6274,-77.4322
"Manassas Park","VA",38.7719,-77.445
"McClure","VA",37.1026,-82.3763
"Brownsburg","VA",37.9285,-79.3192
"Burgess","VA",37.8832,-76.3477
"Lake Barcroft","VA",38.8514,-77.1579
"Clover","VA",36.839,-78.7284
"Columbia","VA",37.7538,-78.1632
"Verona","VA",38.1939,-79.0087
"Fairfax","VA",38.8531,-77.2997
"Falmouth","VA",38.3319,-77.4655
"Scottsburg","VA",36.7588,-78.7914
"Ashburn","VA",39.03,-77.4711
"Big Stone Gap","VA",36.8627,-82.7768
"Gwynn","VA",37.4984,-76.2883
"Jewell Valley","VA",37.2473,-81.8015
"Waynesboro","VA",38.0674,-78.9013
"University Heights","VA",38.041,-78.5222
"Batesville","VA",37.9957,-78.7222
"Whitetop","VA",36.6015,-81.6257
"Nellysford","VA",37.913,-78.8828
"Montrose","VA",37.52,-77.3772
"Lexington","VA",37.7825,-79.444
"Clinchco","VA",37.1588,-82.3562
"Dante","VA",36.9792,-82.296
"Ivor","VA",36.9052,-76.8978
"Montross","VA",38.094,-76.823
"Wintergreen","VA",37.9161,-78.9382
"Vesta","VA",36.7168,-80.3578
"Henry","VA",36.8293,-79.9917
"Jonesville","VA",36.687,-83.1153
"Evington","VA",37.2338,-79.2895
"Duffield","VA",36.7197,-82.7962
"McKenney","VA",36.9853,-77.7219
"Fancy Gap","VA",36.677,-80.6997
"Goshen","VA",37.9901,-79.5067
"Onley","VA",37.6916,-75.718
"Exmore","VA",37.5295,-75.8283
"Schuyler","VA",37.7939,-78.7002
"Kenbridge","VA",36.9608,-78.1284
"Penhook","VA",36.9905,-79.6318
"Mollusk","VA",37.7301,-76.538
"Toga","VA",37.494,-78.6333
"Laurel Park","VA",36.6871,-79.7872
"Bayside","VA",37.7548,-75.7129
"Lignum","VA",38.416,-77.8267
"Winchester","VA",39.1735,-78.1746
"Lebanon","VA",36.8993,-82.0776
"Tysons","VA",38.9214,-77.2273
"Mappsburg","VA",37.5759,-75.7592
"Orange","VA",38.2486,-78.1127
"Midlothian","VA",37.506,-77.6492
"Calverton","VA",38.6355,-77.6661
"Fulks Run","VA",38.6601,-78.9061
"Amelia Court House","VA",37.3366,-77.9882
"Boydton","VA",36.666,-78.3908
"Konnarock","VA",36.666,-81.6382
"Kilmarnock","VA",37.7118,-76.3834
"Crockett","VA",36.8862,-81.192
"Buckingham","VA",37.5501,-78.5556
"Hamilton","VA",39.1349,-77.6642
"Broadlands","VA",39.0168,-77.5167
"Mineral","VA",38.0068,-77.9061
"Apple Grove","VA",37.8929,-77.8969
"Susan","VA",37.366,-76.3136
"Free Union","VA",38.1539,-78.5595
"Keokee","VA",36.8622,-82.9161
"Cleveland","VA",36.9434,-82.1527
"Fairfax Station","VA",38.7942,-77.3358
"Bensley","VA",37.447,-77.442
"Lebanon Church","VA",39.0551,-78.3681
"Brumley Gap","VA",36.8021,-82.0268
"Patrick Springs","VA",36.6344,-80.1985
"Wachapreague","VA",37.6063,-75.6898
"Spencer","VA",36.6199,-80.0073
"Gressitt","VA",37.4874,-76.7077
"Commonwealth","VA",38.0749,-78.4872
"Oak Level","VA",36.7944,-79.9392
"Adwolf","VA",36.7929,-81.5927
"Cana","VA",36.5816,-80.6688
"Haynesville","VA",37.9501,-76.6625
"Jarratt","VA",36.816,-77.4689
"Strasburg","VA",38.9961,-78.3549
"Charles City","VA",37.344,-77.0687
"Rose Hill Farms","VA",38.7776,-77.113
"Radford","VA",37.1229,-80.5587
"Savageville","VA",37.6826,-75.7591
"Emory","VA",36.78,-81.828
"Cartersville","VA",37.6674,-78.0883
"Apple Mountain Lake","VA",38.9231,-78.1033
"Richmond","VA",37.5295,-77.4756
"Barracks","VA",38.0576,-78.5133
"Alberta","VA",36.8553,-77.8937
"Luray","VA",38.6653,-78.4548
"Middleburg","VA",38.9715,-77.7428
"Centreville","VA",38.8391,-77.4389
"Sherando","VA",37.9889,-78.9442
"Kire","VA",37.4401,-80.519
"Drakes Branch","VA",36.9933,-78.6009
"Wicomico Church","VA",37.8151,-76.3777
"Short Pump","VA",37.6549,-77.6201
"Fairview Beach","VA",38.3283,-77.2424
"Lunenburg","VA",36.9584,-78.2682
"Mustoe","VA",38.3237,-79.6403
"Chilhowie","VA",36.8009,-81.6832
"Newington","VA",38.7358,-77.1993
"Greenbush","VA",37.7397,-75.6797
"Glen Lyn","VA",37.3727,-80.858
"Ridgeway","VA",36.5781,-79.8583
"Gargatha","VA",37.7905,-75.582
"Massanutten","VA",38.4115,-78.7269
"Rustburg","VA",37.2712,-79.0961
"Providence Forge","VA",37.4418,-77.0436
"Boykins","VA",36.5778,-77.1989
"Lee Mont","VA",37.7799,-75.6802
"Monterey","VA",38.4116,-79.5809
"Dungannon","VA",36.8285,-82.4681
"Wilderness","VA",38.3257,-77.7258
"Allisonia","VA",36.9342,-80.7255
"Rose Hill","VA",36.667,-83.3753
"Bowling Green","VA",38.0535,-77.3473
"Mappsville","VA",37.8433,-75.5689
"Mountain Road","VA",36.7585,-78.989
"Virginia Beach","VA",36.7335,-76.0435
"Toms Brook","VA",38.9465,-78.44
"Boston","VA",37.6039,-75.8437
"Elliston","VA",37.2164,-80.2245
"Gordonsville","VA",38.1361,-78.1878
"Montvale","VA",37.3866,-79.7253
"Mount Hermon","VA",36.6716,-79.4196
"Occoquan","VA",38.6825,-77.2606
"Craigsville","VA",38.0838,-79.3853
"Herndon","VA",38.97,-77.3867
"Troutville","VA",37.4168,-79.8779
"Greenbackville","VA",38.0105,-75.3869
"Zuni","VA",36.866,-76.8308
"Manakin","VA",37.6015,-77.7022
"McDowell","VA",38.3357,-79.4906
"Glasgow","VA",37.6347,-79.4515
"Hayfield","VA",38.7536,-77.1321
"Timberville","VA",38.6339,-78.773
"Jetersville","VA",37.2943,-78.0942
"Countryside","VA",39.0518,-77.4124
"Mount Crawford","VA",38.36,-78.9413
"Woolwine","VA",36.7899,-80.2773
"Eagle Rock","VA",37.6407,-79.8012
"Crystal Hill","VA",36.8557,-78.9089
"Stonega","VA",36.9532,-82.7913
"Edgerton","VA",36.779,-77.7775
"Arrington","VA",37.6744,-78.8929
"Carrollton","VA",36.9394,-76.5265
"Gore","VA",39.264,-78.3319
"Acorn","VA",38.0193,-76.6491
"Bastian","VA",37.1521,-81.1501
"Stafford","VA",38.4221,-77.4083
"Hanover","VA",37.7668,-77.3706
"Woodlake","VA",37.4216,-77.6783
"Fort Mitchell","VA",36.9182,-78.4861
"Augusta Springs","VA",38.1079,-79.3352
"Chesapeake","VA",36.6778,-76.3024
"Metompkin","VA",37.7671,-75.6054
"Maurertown","VA",38.9325,-78.4615
"Tappahannock","VA",37.9187,-76.8667
"Yale","VA",36.8457,-77.2875
"New Baltimore","VA",38.7495,-77.7151
"Syria","VA",38.4879,-78.3261
"Idylwood","VA",38.8896,-77.2056
"Urbanna","VA",37.6395,-76.5747
"Haysi","VA",37.2151,-82.2931
"Virgilina","VA",36.5463,-78.7755
"Mouth of Wilson","VA",36.5896,-81.3365
"Round Hill","VA",39.1319,-77.7681
"Williamsville","VA",38.1948,-79.5709
"Whitesville","VA",37.7816,-75.6636
"Catlett","VA",38.654,-77.637
"Ebony","VA",36.5759,-77.9839
"Coeburn","VA",36.9445,-82.4695
"Bassett","VA",36.7615,-79.9866
"Purcellville","VA",39.1378,-77.711
"Arlington","VA",38.8786,-77.1011
"Blackstone","VA",37.0821,-78.0029
"New River","VA",37.1409,-80.5929
"Twin Lakes","VA",38.2504,-78.4417
"Stanleytown","VA",36.7512,-79.9521
"Appalachia","VA",36.9098,-82.7882
"Heathsville","VA",37.92,-76.4785
"Covington","VA",37.7786,-79.9868
"Amonate","VA",37.1909,-81.6387
"Charlottesville","VA",38.0375,-78.4855
"Rural Retreat","VA",36.901,-81.2765
"Vansant","VA",37.2358,-82.096
"Smithfield","VA",36.9754,-76.6162
"Lake Monticello","VA",37.921,-78.3295
"Villa Heights","VA",36.6981,-79.8994
"West Springfield","VA",38.7771,-77.2268
"Waverly","VA",37.034,-77.0956
"Abbott","VA",37.4293,-80.1395
"Burkeville","VA",37.1879,-78.2012
"Wallace","VA",36.6529,-82.1279
"Bull Run Mountain Estates","VA",38.9106,-77.6638
"Falling Spring","VA",37.8865,-79.9795
"Chase Crossing","VA",37.7603,-75.6657
"Tazewell","VA",37.1268,-81.5134
"Benns Church","VA",36.9369,-76.5842
"Cullen","VA",37.1176,-78.6492
"Esmont","VA",37.8284,-78.5959
"Lovettsville","VA",39.2735,-77.6399
"Seven Mile Ford","VA",36.8128,-81.6294
"Brooke","VA",38.3876,-77.3797
"Achilles","VA",37.2801,-76.4402
"Lewisetta","VA",37.9979,-76.4627
"Boones Mill","VA",37.1156,-79.9514
"Atkins","VA",36.8674,-81.3992
"Norfolk","VA",36.8945,-76.259
"Belle Haven","VA",37.5557,-75.8258
"Ladysmith","VA",38.0176,-77.5153
"Whaleyville","VA",36.5882,-76.6847
"Middletown","VA",39.0288,-78.278
"Blue Ridge Shores","VA",38.109,-78.0236
"Montclair","VA",38.6111,-77.34
"Dumfries","VA",38.567,-77.3233
"Stuart","VA",36.6404,-80.2686
"Berryville","VA",39.1505,-77.9824
"Templeton","VA",37.0811,-77.3563
"Winterpock","VA",37.346,-77.7194
"Stevens Creek","VA",36.7287,-80.999
"Millboro","VA",37.9751,-79.6028
"Bracey","VA",36.5762,-78.1107
"Stanley","VA",38.5769,-78.5028
"Buchanan","VA",37.5212,-79.6894
"Gretna","VA",36.9492,-79.3647
"Elkton","VA",38.4106,-78.6161
"Moneta","VA",37.1813,-79.6173
"Glen Wilton","VA",37.7529,-79.8189
"Eggleston","VA",37.2873,-80.6187
"Yogaville","VA",37.6654,-78.6946
"Damascus","VA",36.6326,-81.7891
"Rushmere","VA",37.0836,-76.6747
"Petersburg","VA",37.2043,-77.3913
"Dumbarton","VA",37.613,-77.5065
"Fort Hunt","VA",38.7361,-77.0589
"Goldvein","VA",38.449,-77.6553
"Prices Fork","VA",37.207,-80.4852
"Rio","VA",38.0762,-78.4611
"Claremont","VA",37.2273,-76.9665
"Sussex","VA",36.9173,-77.2718
"Hurt","VA",37.0954,-79.3029
"Fort Chiswell","VA",36.9444,-80.9577
"Hallwood","VA",37.8774,-75.5898
"Pungoteague","VA",37.6291,-75.8172
"Hot Springs","VA",38.0013,-79.8239
"Manchester","VA",37.4902,-77.5396
"Sandy Level","VA",36.5645,-79.7276
"Chatham","VA",36.8185,-79.3967
"West Falls Church","VA",38.8648,-77.1878
"Weyers Cave","VA",38.2844,-78.9125
"Walkerton","VA",37.7263,-77.0227
"Pearisburg","VA",37.3289,-80.7275
"Enon","VA",37.3275,-77.3196
"Arvonia","VA",37.6835,-78.3414
"Isle of Wight","VA",36.9076,-76.7077
"Daleville","VA",37.415,-79.9132
"Matoaca","VA",37.2313,-77.4679
"Fair Oaks","VA",38.8653,-77.3586
"Temperanceville","VA",37.899,-75.5527
"Gratton","VA",37.1351,-81.4212
"Franconia","VA",38.7682,-77.1587
"Collinsville","VA",36.7215,-79.9122
"Windsor","VA",36.8095,-76.7406
"Cats Bridge","VA",37.5491,-75.7797
"Parksley","VA",37.7863,-75.6539
"Bland","VA",37.1,-81.1161
"Huntington","VA",38.7916,-77.074
"Brightwood","VA",38.4132,-78.188
"Sanford","VA",37.9299,-75.662
"Chincoteague","VA",37.9591,-75.3496
"Sperryville","VA",38.6562,-78.2322
"Waterford","VA",39.1868,-77.61
"Sugarland Run","VA",39.0309,-77.3762
"Tiptop","VA",37.2109,-81.434
"Deerfield","VA",38.1955,-79.4104
"Meadowbrook","VA",37.4301,-77.474
"Selma","VA",37.8033,-79.8499
"Churchville","VA",38.2247,-79.1619
"Springville","VA",37.194,-81.3999
"Shenandoah","VA",38.4875,-78.6171
"Saxe","VA",36.9299,-78.6633
"Parrott","VA",37.2168,-80.6241
"Altavista","VA",37.1232,-79.2858
"Potomac Mills","VA",38.6547,-77.3012
"Great Falls","VA",39.011,-77.3013
"Naruna","VA",37.106,-79.0025
"Clifton Forge","VA",37.8232,-79.825
"Skyland Estates","VA",38.9329,-78.085
"Lynch Station","VA",37.1463,-79.3009
"Claypool Hill","VA",37.0633,-81.7506
"Fries","VA",36.7139,-80.975
"La Crosse","VA",36.7014,-78.0939
"Glade Spring","VA",36.7899,-81.7726
"Falls Church","VA",38.8847,-77.1751
"Dunn Loring","VA",38.8945,-77.2315
"Pound","VA",37.126,-82.6071
"Rocky Mount","VA",37.0045,-79.8854
"Concord","VA",37.3426,-78.9862
"Grottoes","VA",38.2692,-78.8252
"Modest Town","VA",37.8169,-75.561
"Fairlawn","VA",37.1476,-80.5567
"Galax","VA",36.666,-80.9176
"Farmville","VA",37.2968,-78.3993
"University Center","VA",39.0601,-77.4445
"Lively","VA",37.7776,-76.5136
"Nethers","VA",38.5704,-78.2778
"Hampden Sydney","VA",37.2415,-78.4693
"Saxis","VA",37.9261,-75.7224
"Sutherland","VA",37.196,-77.5597
"Brodnax","VA",36.7033,-78.0318
"Stanardsville","VA",38.2991,-78.4367
"Purdy","VA",36.8224,-77.588
"Highland Springs","VA",37.5516,-77.3285
"Massanetta Springs","VA",38.3899,-78.834
"Martinsville","VA",36.6827,-79.8636
"Chantilly","VA",38.8868,-77.4453
"New Hope","VA",38.1954,-78.9044
"Dry Fork","VA",36.7546,-79.3997
"Toano","VA",37.3799,-76.8041
"Saluda","VA",37.6053,-76.5938
"Danville","VA",36.5831,-79.4088
"Jewell Ridge","VA",37.1848,-81.7884
"Shipman","VA",37.7272,-78.8423
"Quantico","VA",38.5224,-77.2901
"Rice","VA",37.2752,-78.2914
"Triangle","VA",38.5483,-77.3195
"Ingram","VA",36.7443,-79.1584
"Ivy","VA",38.0611,-78.5987
"Ettrick","VA",37.2435,-77.4287
"Harborton","VA",37.6596,-75.8332
"Dendron","VA",37.0364,-76.924
"Prince George","VA",37.2209,-77.2683
"Flint Hill","VA",38.7666,-78.1028
"Quinby","VA",37.5533,-75.7368
"Wise","VA",36.977,-82.5809
"Sedley","VA",36.7753,-76.9862
"Dale City","VA",38.6473,-77.3459
"Mechanicsville","VA",37.6262,-77.3561
"Lafayette","VA",37.233,-80.2051
"Nathalie","VA",36.9381,-78.9421
"Manassas","VA",38.7479,-77.4839
"Mount Sidney","VA",38.2586,-78.9654
"Lakeside","VA",37.6133,-77.4768
"Colonial Beach","VA",38.2565,-76.9784
"Central Point","VA",37.989,-77.1322
"Lowes Island","VA",39.0471,-77.3524
"Suffolk","VA",36.6953,-76.6398
"Burkes Garden","VA",37.0982,-81.3409
"Ivanhoe","VA",36.8428,-80.9683
"Chase City","VA",36.7998,-78.461
"Saint Charles","VA",36.8052,-83.0575
"Clinchport","VA",36.6781,-82.7451
"Blairs","VA",36.6958,-79.3774
"Merrifield","VA",38.8731,-77.2426
"Madison Heights","VA",37.4487,-79.1057
"Deep Creek","VA",37.7631,-75.7551
"Clarksville","VA",36.6172,-78.5639
"Moseley","VA",37.4751,-77.7789
"Hoadly","VA",38.6804,-77.3592
"Mitchelltown","VA",38.0129,-79.8114
"Lovingston","VA",37.7605,-78.8689
"Kent","VA",36.9521,-81.0187
"Independence","VA",36.6254,-81.1511
"Harrisonburg","VA",38.4362,-78.8735
"Melfa","VA",37.6489,-75.7408
"King George","VA",38.2807,-77.1896
"Newtown","VA",38.4154,-78.5981
"Clintwood","VA",37.1507,-82.4568
"White Stone","VA",37.644,-76.3897
"Pembroke","VA",37.3219,-80.6365
"Spring Garden","VA",36.7804,-79.3047
"Rocky Gap","VA",37.2423,-81.1073
"Dublin","VA",37.0987,-80.6831
"Wakefield","VA",36.9686,-76.9875
"Dryden","VA",36.7764,-82.9433
"Elk Hill","VA",37.7176,-78.0875
"Horntown","VA",37.9655,-75.4559
"Low Moor","VA",37.7944,-79.8706
"Gladstone","VA",37.5468,-78.8495
"Oak Grove","VA",38.9845,-77.4174
"Gloucester","VA",37.4138,-76.5255
"Dulles Town Center","VA",39.0265,-77.4196
"Bobtown","VA",37.6493,-75.7998
"Belspring","VA",37.1938,-80.6097
"Fredericksburg","VA",38.2992,-77.4872
"Bealeton","VA",38.5822,-77.7781
"Warrenton","VA",38.7176,-77.7975
"Savage Town","VA",37.55,-75.7983
"Marion","VA",36.8389,-81.5135
"Blue Ridge","VA",37.3783,-79.8206
"Ravensworth","VA",38.8032,-77.2223
"Broadway","VA",38.6082,-78.8017
"McCoy","VA",37.2171,-80.5978
"Bellwood","VA",37.406,-77.4363
"Shawsville","VA",37.1707,-80.2527
"Drewryville","VA",36.7157,-77.3064
"Wyndham","VA",37.6924,-77.6123
"Bridgewater","VA",38.3863,-78.9675
"Weber City","VA",36.6236,-82.5631
"Spring Creek","VA",38.401,-79.0342
"Pratts","VA",38.3476,-78.27
"Pastoria","VA",37.7446,-75.6352
"Union Level","VA",36.7071,-78.2319
"East Lexington","VA",37.8009,-79.416
"Wattsville","VA",37.9304,-75.4953
"Mount Airy","VA",36.9429,-79.1922
"Ferrum","VA",36.9313,-80.0149
"Culpeper","VA",38.4705,-78.0001
"Cloverdale","VA",37.3566,-79.9055
"Fincastle","VA",37.4994,-79.8757
"Triplet","VA",36.6104,-77.7658
"Vinton","VA",37.2745,-79.8888
"Owenton","VA",37.8837,-77.1003
"Meherrin","VA",37.1032,-78.3667
"DeWitt","VA",37.0388,-77.6433
"Pohick","VA",38.7101,-77.1966
"Henry Fork","VA",36.9679,-79.871
"Chester Gap","VA",38.8534,-78.1325
"Pamplin","VA",37.2642,-78.682
"Mount Solon","VA",38.3448,-79.085
"Gate City","VA",36.6401,-82.5782
"Bloxom","VA",37.8292,-75.6214
"McLean","VA",38.9436,-77.1943
"Brambleton","VA",38.9803,-77.5323
"Sweet Briar Station","VA",37.5529,-79.0664
"Blacksburg","VA",37.23,-80.428
"Milford","VA",38.0232,-77.3733
"Pender","VA",38.8707,-77.3689
"Passapatanzy","VA",38.2942,-77.3266
"Castlewood","VA",36.8782,-82.2878
"Portsmouth","VA",36.8468,-76.354
"Newport News","VA",37.1051,-76.5185
"Westlake Corner","VA",37.1234,-79.6971
"Shenandoah Retreat","VA",39.1373,-77.8637
"Sugar Grove","VA",36.7689,-81.4075
"Harriston","VA",38.212,-78.8283
"Cluster Springs","VA",36.6128,-78.9221
"Alberene","VA",37.8865,-78.6164
"Mavisdale","VA",37.1984,-82.0079
"Pauls Crossroads","VA",37.8651,-76.9102
"Irvington","VA",37.6621,-76.4205
"Madisonville","VA",37.1882,-78.69
"Nottoway Court House","VA",37.1271,-78.0734
"Guinea","VA",38.1437,-77.4378
"Timberlake","VA",37.3166,-79.2482
"Spotsylvania Courthouse","VA",38.1982,-77.5885
"Forest","VA",37.3728,-79.2831
"Nelsonia","VA",37.8224,-75.5895
"Weedonville","VA",38.2985,-77.1586
"Oak Hall","VA",37.9307,-75.5469
"Cape Charles","VA",37.257,-76.0093
"Brosville","VA",36.6196,-79.602
"Basye","VA",38.8181,-78.7659
"Paytes","VA",38.2274,-77.8328
"New Kent","VA",37.5095,-76.9862
"South Hill","VA",36.7254,-78.1287
"Gladys","VA",37.1632,-79.0736
"Volens","VA",36.9351,-79.0122
"Hiwassee","VA",36.9682,-80.7044
"Hewlett","VA",37.9224,-77.5764
"Dillwyn","VA",37.5411,-78.4613
"Haymarket","VA",38.8121,-77.6363
"Dranesville","VA",38.9955,-77.3693
"Brentsville","VA",38.6882,-77.4961
"Brookneal","VA",37.0532,-78.9486
"Bluefield","VA",37.2351,-81.2751
"Hollymead","VA",38.1266,-78.4386
"Wellington","VA",38.7457,-77.0553
"Boyce","VA",39.0932,-78.0602
"Plum Creek","VA",37.1268,-80.5047
"South Chesconessex","VA",37.7432,-75.7785
"Mount Jackson","VA",38.7394,-78.6513
"Honaker","VA",37.0156,-81.9685
"Newsoms","VA",36.6262,-77.1248
"Eastville","VA",37.3512,-75.9406
"Fork Union","VA",37.7632,-78.2622
"Marshall","VA",38.8661,-77.8453
"Buckner","VA",37.9621,-77.7728
"Annandale","VA",38.8324,-77.196
"Gasburg","VA",36.5588,-77.8721
"Nickelsville","VA",36.7517,-82.416
"Mechanicsburg","VA",37.1482,-80.9412
"Salem","VA",37.2864,-80.0555
"Linville","VA",38.5204,-78.8375
"Laurel","VA",37.6375,-77.5062
"Leesburg","VA",39.1058,-77.5544
"East Highland Park","VA",37.577,-77.3865
"Palmyra","VA",37.8652,-78.2627
"Walters","VA",36.7724,-76.8494
"Farnham","VA",37.8854,-76.625
"Cheriton","VA",37.292,-75.968
"Warfield","VA",36.8976,-77.8194
"Cumberland","VA",37.4914,-78.2577
"Rockdell","VA",36.8907,-81.9537
"Dooms","VA",38.1028,-78.8494
"Hillsville","VA",36.7613,-80.7372
"Pulaski","VA",37.0528,-80.7624
"Baskerville","VA",36.6844,-78.2732
"Stony Creek","VA",36.948,-77.4
"New Church","VA",37.9826,-75.5292
"Rileyville","VA",38.7651,-78.3881
"Greenbriar","VA",38.8717,-77.397
"Staunton","VA",38.1593,-79.0611
"Mendota","VA",36.7109,-82.3015
"New Market","VA",38.6459,-78.6709
"Edinburg","VA",38.8235,-78.5634
"Fairview","VA",36.8292,-78.4653
"Wylliesburg","VA",36.8554,-78.5903
"Dahlgren","VA",38.3444,-77.0624
"Stuarts Draft","VA",38.0245,-79.0308
"Stephens City","VA",39.0902,-78.223
"Wytheville","VA",36.953,-81.0881
"Middlebrook","VA",38.0552,-79.2182
"Oakton","VA",38.8887,-77.3017
"Covesville","VA",37.8901,-78.7047
"Lyndhurst","VA",38.0221,-78.9516
"Axton","VA",36.6596,-79.712
"Charlotte Court House","VA",37.0563,-78.6377
"Bristow","VA",38.7229,-77.5361
"Champlain","VA",38.0135,-76.9927
"Pantops","VA",38.0308,-78.4444
"Courtland","VA",36.7123,-77.062
"Baileys Crossroads","VA",38.8477,-77.1305
"Goode","VA",37.3588,-79.3917
"Bristol","VA",36.6179,-82.1607
"Ashland","VA",37.7596,-77.4715
"Monroe","VA",37.5021,-79.1278
"Lincolnia","VA",38.8158,-77.1543
"Reston","VA",38.9497,-77.3461
"Five Mile Fork","VA",38.2901,-77.5533
"Hampton","VA",37.0551,-76.3629
"Healing Springs","VA",37.961,-79.8626
"Nassawadox","VA",37.4763,-75.8591
"Halifax","VA",36.7612,-78.9279
"Woodbridge","VA",38.6569,-77.2403
"Alton","VA",36.5732,-79.0028
"Bergton","VA",38.7657,-78.9489
"Reedville","VA",37.8421,-76.2758
"Sandston","VA",37.512,-77.3149
"Starkey","VA",37.2007,-79.9986
"Central Garage","VA",37.7458,-77.1315
"Spring Grove","VA",37.1657,-76.9733
"New Canton","VA",37.7051,-78.2994
"King William","VA",37.6882,-77.0212
"Fort Blackmore","VA",36.7745,-82.5868
"Roanoke","VA",37.2785,-79.958
"Crewe","VA",37.1812,-78.1307
"Williamsburg","VA",37.2693,-76.7076
"Hybla Valley","VA",38.7485,-77.0822
"Yorkshire","VA",38.7882,-77.4495
"The Plains","VA",38.8622,-77.7743
"Buckhall","VA",38.725,-77.4472
"Unionville","VA",38.2599,-77.9683
"Glen Allen","VA",37.666,-77.4838
"Capron","VA",36.7092,-77.2013
"Fishersville","VA",38.1004,-78.9686
"Raven","VA",37.0937,-81.8601
"Sterling","VA",39.0052,-77.405
"Simpsons","VA",37.0379,-80.2045
"Centenary","VA",37.7093,-78.5114
"Narrows","VA",37.3316,-80.8083
"Ewing","VA",36.6381,-83.4291
"Woodburn","VA",38.8503,-77.2322
"Kinsale","VA",38.0296,-76.5808
"Victoria","VA",36.9947,-78.2242
"Callaghan","VA",37.8112,-80.0871
"Shenandoah Shores","VA",38.9621,-78.1414
"Warm Springs","VA",38.0463,-79.7826
"Front Royal","VA",38.926,-78.1838
"Opal","VA",38.6201,-77.8049
"Shawnee Land","VA",39.1976,-78.3464
"Big Island","VA",37.5351,-79.3615
"Trammel","VA",37.0145,-82.2938
"Sebrell","VA",36.7838,-77.1275
"Brandermill","VA",37.434,-77.6522
"Chesterfield","VA",37.3771,-77.5058
"Nelson","VA",36.5624,-78.7047
"Meadowview","VA",36.7604,-81.8629
"Brucetown","VA",39.2545,-78.0667
"Brokenburg","VA",38.1457,-77.7189
"Sudley","VA",38.7878,-77.4961
"Jeffersonton","VA",38.6371,-77.915
"Alexandria","VA",38.8185,-77.0861
"Elmo","VA",36.6765,-79.1222
"Belmont","VA",39.065,-77.4965
"Scottsville","VA",37.8063,-78.4919
"Red Ash","VA",37.1134,-81.871
"Deltaville","VA",37.5525,-76.3331
"Kings Park","VA",38.8026,-77.2396
"Natural Bridge Station","VA",37.621,-79.5059
"South Riding","VA",38.912,-77.5132
"Bull Run","VA",38.7802,-77.5204
"North Shore","VA",37.0778,-79.6518
"Pimmit Hills","VA",38.9105,-77.1991
"Phenix","VA",37.0811,-78.7485
"Gainesville","VA",38.7931,-77.6347
"Woodlawn","VA",36.7385,-80.8166
"Linton Hall","VA",38.7551,-77.575
"Rivanna","VA",38.1249,-78.4608
"Glenvar","VA",37.276,-80.1256
"Norton","VA",36.9314,-82.6262
"Fieldale","VA",36.7009,-79.9424
"Burke","VA",38.7773,-77.2633
"Vienna","VA",38.8996,-77.2597
"Draper","VA",37.0012,-80.7373
"Motley","VA",37.0656,-79.3474
"Spotsylvania","VA",38.201,-77.5892
"Laurel Hill","VA",38.7026,-77.2422
"Paint Bank","VA",37.569,-80.262
"Pocahontas","VA",37.3072,-81.3439
"Lynchburg","VA",37.4003,-79.1908
"Aquia Harbour","VA",38.4597,-77.3806
"Trout Dale","VA",36.7022,-81.4413
"Morrisville","VA",38.5018,-77.7
"Washington","VA",38.7122,-78.1599
"Makemie Park","VA",37.9106,-75.5845
"Chester","VA",37.3531,-77.4342
"Iron Gate","VA",37.7985,-79.7903
"Seven Corners","VA",38.8657,-77.1445
"Seaford","VA",37.1982,-76.433
"Pennington Gap","VA",36.7594,-83.03
"West Point","VA",37.5519,-76.8017
"Madison","VA",38.3794,-78.2586
"Groveton","VA",38.7605,-77.098
"Disputanta","VA",37.1243,-77.2258
"Goochland","VA",37.6973,-77.8944
"Oriskany","VA",37.6165,-79.9837
"Chula","VA",37.3885,-77.9031
"Captains Cove","VA",38.0003,-75.4173
"Lorton","VA",38.6984,-77.2163
"Laymantown","VA",37.3629,-79.8524
"Rich Creek","VA",37.3832,-80.8204
"Amherst","VA",37.5816,-79.0508
"Port Royal","VA",38.1657,-77.1989
"Pleasant Valley","VA",38.9121,-77.4758
"Crozet","VA",38.0645,-78.6962
"Emporia","VA",36.6953,-77.5356
"Midland","VA",38.5984,-77.7213
"Scotland","VA",37.1812,-76.7966
"Greenville","VA",38.0036,-79.1522
"Woodstock","VA",38.875,-78.516
"Fairfield","VA",37.8793,-79.2895
"Ruckersville","VA",38.2314,-78.3756
"Arcola","VA",38.9447,-77.5306
"Dundas","VA",36.9149,-78.0217
"Appomattox","VA",37.3591,-78.8269
"Richlands","VA",37.0879,-81.808
"Floris","VA",38.9347,-77.4082
"Massies Mill","VA",37.7771,-79.0011
"Dayton","VA",38.4173,-78.9412
"Shenandoah Farms","VA",38.9792,-78.0469
"Poquoson","VA",37.1318,-76.3569
"Floyd","VA",36.9118,-80.3184
"North Springfield","VA",38.8024,-77.2028
"Mantua","VA",38.8526,-77.2571
"Painter","VA",37.5852,-75.7837
"Chatmoss","VA",36.6758,-79.7981
"New Castle","VA",37.5013,-80.1119
"Bon Air","VA",37.5187,-77.5713
"Prospect","VA",37.3029,-78.5592
"Bedford","VA",37.336,-79.5179
"Carrsville","VA",36.7088,-76.837
"Union Hall","VA",37.0205,-79.6833
"Hurley","VA",37.4204,-82.0198
"Hartfield","VA",37.5512,-76.4461
"Abingdon","VA",36.7089,-81.9713
"Austinville","VA",36.8512,-80.912
"Tasley","VA",37.7125,-75.6971
"Max Meadows","VA",36.9798,-80.9678
"Franklin","VA",36.6831,-76.9386
"Belmont Estates","VA",38.4465,-78.9228
"Oakpark","VA",38.3668,-78.16
"Bellamy","VA",37.3979,-76.5725
"York Haven Anchorage","VA",37.6654,-78.6946
"Lawrenceville","VA",36.7565,-77.8539
"Hopewell","VA",37.2914,-77.2985
"Tuckahoe","VA",37.5878,-77.5858
"Keysville","VA",37.039,-78.4804
"Jefferson","VA",38.8646,-77.1878
"Grundy","VA",37.2754,-82.0988
"Broadford","VA",36.9273,-81.6726
"Gloucester Courthouse","VA",37.4053,-76.526
"Wilsons","VA",37.1393,-77.8658
"Bentonville","VA",38.8318,-78.3164
"Saltville","VA",36.8751,-81.7642
"Lancaster","VA",37.7675,-76.4549
"Cave Spring","VA",37.2254,-80.0073
"Louisa","VA",38.0212,-77.9985
"Vesuvius","VA",37.9062,-79.1973
"Surry","VA",37.1371,-76.8333
"Remington","VA",38.5346,-77.8083
"Center Cross","VA",37.8046,-76.7788
"Riverview","VA",36.9326,-82.4845
"Gloucester Point","VA",37.2767,-76.5043
"Ararat","VA",36.599,-80.5106
"Alleghany","VA",37.7473,-80.2403
"Jamestown","VA",37.2082,-76.7741
"Hillsboro","VA",39.1995,-77.7247
"Springfield","VA",38.7809,-77.1839
"Callands","VA",36.8201,-79.5867
"Jolivue","VA",38.1149,-79.0668
"Nokesville","VA",38.694,-77.5757
"Cherry Hill","VA",38.5696,-77.2895
"Horse Pasture","VA",36.6313,-79.9514
"Buena Vista","VA",37.7319,-79.3569
"Hollins","VA",37.3434,-79.9534
"Merrimac","VA",37.1904,-80.4244
"Crimora","VA",38.1618,-78.8413
"Tangier","VA",37.8235,-75.9934
"Atlantic","VA",37.9023,-75.5058
"Saint Paul","VA",36.9069,-82.3164
"Bacova","VA",38.054,-79.8437
"Chamberlayne","VA",37.628,-77.4288
"Mount Vernon","VA",38.714,-77.1043
"Snowville","VA",37.026,-80.5739
"Piney River","VA",37.7051,-79.0231
"Yorktown","VA",37.2352,-76.5146
"Lake Ridge","VA",38.6843,-77.3059
"Cedar Bluff","VA",37.0876,-81.7632
"Accomac","VA",37.7196,-75.6674
"Harman","VA",37.2932,-82.2021
"Caylor","VA",36.6306,-83.4944
"Mathews","VA",37.4365,-76.3245
"McMullin","VA",36.8179,-81.5775
"Loch Lomond","VA",38.7811,-77.4817
"Riverdale","VA",36.6764,-78.8943
"Cripple Creek","VA",36.821,-81.0984
"Branchville","VA",36.5697,-77.2501
"King and Queen Court House","VA",37.6683,-76.8782
"Riverton","VA",38.9465,-78.1994
"South Boston","VA",36.7131,-78.9135
"Ruther Glen","VA",37.9287,-77.4558
"Wolf Trap","VA",38.9395,-77.2842
"Clifton","VA",38.7802,-77.3866
"Independent Hill","VA",38.6404,-77.409
"Christiansburg","VA",37.1411,-80.4028
"Onancock","VA",37.7102,-75.7433
"Keller","VA",37.6212,-75.7644
"Colonial Heights","VA",37.265,-77.3969
"Shadwell","VA",38.0129,-78.3956
"Warsaw","VA",37.9603,-76.761
"Highland Acres","DE",39.1164,-75.5216
"Wyoming","DE",39.1147,-75.5631
"Newark","DE",39.6776,-75.7573
"Talleyville","DE",39.809,-75.5488
"Rising Sun","DE",39.1004,-75.5155
"Fenwick Island","DE",38.4604,-75.0542
"Roseville Park","DE",39.6996,-75.713
"Blades","DE",38.6353,-75.6026
"Milford","DE",38.9091,-75.4224
"Stanton","DE",39.7157,-75.6408
"Holly Oak","DE",39.7884,-75.4788
"Christiana","DE",39.6651,-75.6599
"Bridgeville","DE",38.7248,-75.6027
"Greenwood","DE",38.8069,-75.5907
"Saint Georges","DE",39.5577,-75.6533
"Edgemoor","DE",39.7551,-75.507
"Bethany Beach","DE",38.5391,-75.066
"Ogletown","DE",39.6782,-75.6974
"Middletown","DE",39.4452,-75.7165
"Cheswold","DE",39.222,-75.5892
"Newport","DE",39.7136,-75.6052
"Harrington","DE",38.9243,-75.5707
"Dewey Beach","DE",38.6958,-75.0749
"Brookside","DE",39.6666,-75.7153
"Marshallton","DE",39.7257,-75.6541
"Camden","DE",39.0992,-75.557
"Claymont","DE",39.8032,-75.4606
"Milton","DE",38.7751,-75.3104
"Dagsboro","DE",38.5466,-75.2466
"Westover Hills","DE",39.7634,-75.5908
"Slaughter Beach","DE",38.9143,-75.3085
"Frankford","DE",38.5215,-75.2342
"Riverview","DE",39.0293,-75.5202
"Centerville","DE",39.8215,-75.6166
"Millsboro","DE",38.5866,-75.3019
"Holloway Terrace","DE",39.7018,-75.5463
"Townsend","DE",39.3968,-75.6945
"Minquadale","DE",39.7071,-75.5666
"Woodside","DE",39.0712,-75.5667
"Kenton","DE",39.2271,-75.6645
"Rockland","DE",39.7962,-75.5721
"Hartly","DE",39.1685,-75.7129
"Montchanin","DE",39.7898,-75.5891
"Seaford","DE",38.6539,-75.6117
"Kent Acres","DE",39.1328,-75.516
"Pleasantville","DE",39.664,-75.626
"Delmar","DE",38.4651,-75.5552
"Leipsic","DE",39.243,-75.5155
"Magnolia","DE",39.0714,-75.4761
"Greenville","DE",39.7783,-75.6049
"Pike Creek Valley","DE",39.7296,-75.6993
"Bethel","DE",38.5706,-75.6194
"Hockessin","DE",39.7837,-75.6815
"Lewes","DE",38.7784,-75.1455
"Selbyville","DE",38.4627,-75.2083
"Collins Park","DE",39.6862,-75.5563
"Delaware City","DE",39.5743,-75.5939
"Bowers Beach","DE",39.0598,-75.4013
"Little Creek","DE",39.1661,-75.4481
"Fairfax","DE",39.7865,-75.5433
"Wilmington Manor","DE",39.6859,-75.5853
"Lebanon","DE",39.1115,-75.5005
"Laurel","DE",38.5697,-75.5688
"Rehoboth Beach","DE",38.7171,-75.0845
"Ardentown","DE",39.8079,-75.4804
"Farmington","DE",38.8699,-75.579
"Felton","DE",39.0127,-75.5764
"Ardencroft","DE",39.8054,-75.486
"Viola","DE",39.0429,-75.5715
"Glasgow","DE",39.6015,-75.7474
"Odessa","DE",39.4562,-75.6605
"Elsmere","DE",39.7385,-75.5946
"Georgetown","DE",38.6899,-75.3872
"Arden","DE",39.8113,-75.4886
"Bear","DE",39.6188,-75.6804
"Milford Crossroads","DE",39.7157,-75.7408
"Clayton","DE",39.2846,-75.6364
"Rodney Village","DE",39.1284,-75.5395
"Millville","DE",38.5352,-75.129
"Frederica","DE",39.008,-75.4667
"Pike Creek","DE",39.7485,-75.6953
"Wilmington","DE",39.7415,-75.5413
"South Bethany","DE",38.5161,-75.0591
"Bellefonte","DE",39.7669,-75.4982
"Henlopen Acres","DE",38.7257,-75.0849
"Ocean View","DE",38.5357,-75.0991
"Dover","DE",39.1603,-75.5203
"New Castle","DE",39.6685,-75.5693
"Houston","DE",38.9174,-75.5039
"Ellendale","DE",38.8103,-75.425
"Yorklyn","DE",39.8082,-75.6755
"Smyrna","DE",39.2922,-75.6077
"Long Neck","DE",38.6212,-75.152
"North Star","DE",39.755,-75.7331
"Washington","DC",38.9047,-77.0163
"Ixonia","WI",43.1396,-88.5962
"Ridgeway","WI",42.9985,-89.993
"Summit Corners","WI",43.0767,-88.4701
"Colfax","WI",44.997,-91.7264
"Wyeville","WI",44.0279,-90.3861
"Friesland","WI",43.5886,-89.0669
"Hortonville","WI",44.3368,-88.6361
"Merton","WI",43.1423,-88.3088
"Kaukauna","WI",44.2776,-88.2644
"Gotham","WI",43.2225,-90.2969
"Aniwa","WI",45.0117,-89.2089
"South Range","WI",46.608,-91.9835
"Winter","WI",45.8221,-91.013
"Dodge","WI",44.1345,-91.5485
"Oconomowoc","WI",43.0994,-88.4951
"Oakdale","WI",43.962,-90.3789
"Verona","WI",42.9886,-89.5378
"Ella","WI",44.5366,-92.0502
"Wonewoc","WI",43.6531,-90.2239
"Fremont","WI",44.2602,-88.8715
"Platteville","WI",42.7279,-90.4676
"McAllister","WI",45.3272,-87.7212
"Coloma","WI",44.0387,-89.5311
"Strum","WI",44.5532,-91.3875
"Wind Lake","WI",42.823,-88.1573
"Baileys Harbor","WI",45.0659,-87.133
"Nasonville","WI",44.5989,-90.2585
"Pell Lake","WI",42.5381,-88.3509
"Mazomanie","WI",43.1731,-89.7954
"Radisson","WI",45.7685,-91.2179
"Viroqua","WI",43.5582,-90.8863
"Black Hawk","WI",43.2692,-89.9273
"Gibbsville","WI",43.6521,-87.8317
"Pine River","WI",44.1483,-89.0757
"Waterloo","WI",43.1835,-88.99
"Whittlesey","WI",45.2206,-90.3232
"Hancock","WI",44.1333,-89.5209
"Montfort","WI",42.9697,-90.433
"Sugar Bush","WI",44.4816,-88.7359
"Salem Lakes","WI",42.5318,-88.1016
"Pipe","WI",43.9142,-88.3126
"Poplar","WI",46.5828,-91.7836
"Hannibal","WI",45.2525,-90.789
"Kewaskum","WI",43.5177,-88.2306
"Medford","WI",45.1366,-90.3437
"Richland Center","WI",43.3402,-90.384
"Lake Beulah","WI",42.8214,-88.3209
"Kempster","WI",45.2897,-89.1668
"Clyman","WI",43.3116,-88.7231
"Ironton","WI",43.5453,-90.1437
"Rice Lake","WI",45.4864,-91.7447
"Larsen","WI",44.1917,-88.624
"Weyerhaeuser","WI",45.4251,-91.4145
"Iola","WI",44.5091,-89.1249
"New Holstein","WI",43.9491,-88.0942
"Powers Lake","WI",42.5395,-88.2935
"Endeavor","WI",43.7163,-89.4695
"North Fond du Lac","WI",43.8107,-88.4861
"Windsor","WI",43.2398,-89.2966
"Wausaukee","WI",45.378,-87.9552
"Bayside","WI",43.1827,-87.9017
"Almena","WI",45.415,-92.0383
"Winchester","WI",44.1982,-88.6599
"Howard","WI",44.5703,-88.0923
"Lebanon","WI",43.2588,-88.6294
"Christie","WI",44.6472,-90.5965
"Bohners Lake","WI",42.6241,-88.2879
"Hingham","WI",43.6465,-87.9151
"Durand","WI",44.627,-91.9607
"Burlington","WI",42.675,-88.2724
"Collins","WI",44.0827,-87.9839
"Somerset","WI",45.1269,-92.6754
"Chippewa Falls","WI",44.9358,-91.3902
"Townsend","WI",45.3241,-88.5902
"Waupaca","WI",44.3508,-89.072
"Lake Wissota","WI",44.922,-91.3014
"Gleason","WI",45.3089,-89.4965
"Campbellsport","WI",43.5975,-88.2814
"Boyd","WI",44.9533,-91.0398
"Bruce","WI",45.459,-91.2734
"Kellnersville","WI",44.2253,-87.8021
"Port Edwards","WI",44.3484,-89.854
"Valders","WI",44.0696,-87.8859
"Rockland","WI",43.9075,-90.9165
"New Munster","WI",42.5795,-88.2279
"Chilton","WI",44.0293,-88.1625
"Lake Geneva","WI",42.5825,-88.4282
"Cuba City","WI",42.6036,-90.4317
"Saint Joseph","WI",43.7855,-91.0436
"Wrightstown","WI",44.326,-88.1756
"Loretta","WI",45.8855,-90.8529
"Manawa","WI",44.4613,-88.9204
"Arena","WI",43.1636,-89.9104
"Rusk","WI",44.9077,-91.8341
"Port Wing","WI",46.7757,-91.3806
"Buffalo City","WI",44.2237,-91.8654
"Genoa City","WI",42.5065,-88.3193
"Eagle Lake","WI",42.7014,-88.1291
"Heafford Junction","WI",45.5472,-89.7154
"Silver Lake","WI",42.5489,-88.1668
"Fitchburg","WI",42.9859,-89.4255
"Rib Lake","WI",45.3196,-90.2031
"Spencer","WI",44.7544,-90.2983
"Haugen","WI",45.6078,-91.7789
"Saukville","WI",43.3847,-87.9439
"Merrill","WI",45.1818,-89.7006
"Mineral Point","WI",42.8628,-90.182
"Monona","WI",43.054,-89.3334
"Almond","WI",44.2607,-89.4087
"Hatfield","WI",44.4164,-90.7409
"Tustin","WI",44.1698,-88.896
"Beaver Dam","WI",43.4688,-88.8311
"Oconomowoc Lake","WI",43.0975,-88.4521
"Paddock Lake","WI",42.5707,-88.1044
"Greenleaf","WI",44.317,-88.0972
"Mackville","WI",44.3436,-88.4151
"Marquette","WI",43.7464,-89.1384
"Little Chute","WI",44.2889,-88.3183
"Baldwin","WI",44.9541,-92.371
"Omro","WI",44.0391,-88.7378
"Green Valley","WI",44.7969,-88.2682
"Mountain","WI",45.1864,-88.4681
"Rio Creek","WI",44.5892,-87.5412
"Symco","WI",44.5133,-88.904
"Neshkoro","WI",43.9653,-89.2157
"Thornton","WI",44.7986,-88.6913
"Mount Pleasant","WI",42.7129,-87.8873
"Mindoro","WI",44.0211,-91.1018
"Canton","WI",45.428,-91.6599
"Johnsburg","WI",43.8772,-88.2898
"Eleva","WI",44.5763,-91.4704
"Johnstown Center","WI",42.6958,-88.8396
"Black Earth","WI",43.1344,-89.7469
"Dale","WI",44.2757,-88.6729
"Shorewood","WI",43.0914,-87.8864
"Columbus","WI",43.3354,-89.03
"Buena Vista","WI",43.0656,-88.3518
"Danbury","WI",46.0088,-92.3777
"Seymour","WI",44.5142,-88.3271
"Kieler","WI",42.5823,-90.6051
"Biron","WI",44.4281,-89.766
"Phlox","WI",45.0511,-89.0143
"Fox Crossing","WI",44.2226,-88.4894
"Packwaukee","WI",43.7652,-89.4599
"Eastman","WI",43.1622,-91.0254
"Junction City","WI",44.5929,-89.7679
"Avoca","WI",43.1906,-90.326
"Gillett","WI",44.8897,-88.3064
"Manitowish","WI",46.133,-90.0135
"Greenbush","WI",43.7778,-88.0902
"Rudolph","WI",44.4972,-89.8018
"Withee","WI",44.9508,-90.5989
"Adams","WI",43.9554,-89.8169
"Gratiot","WI",42.5798,-90.0238
"Denmark","WI",44.3492,-87.8313
"Beloit","WI",42.523,-89.0184
"Melvina","WI",43.8024,-90.7815
"Wilmot","WI",42.5086,-88.1864
"Genoa","WI",43.5734,-91.2261
"Montreal","WI",46.4312,-90.2382
"Wanderoos","WI",45.3086,-92.4944
"Monterey","WI",43.1711,-88.4995
"Plainville","WI",43.7089,-89.8126
"Mount Zion","WI",43.2566,-90.7337
"Greenfield","WI",42.9619,-88.0051
"Fredonia","WI",43.4715,-87.9489
"Saint Cloud","WI",43.8245,-88.1687
"Greendale","WI",42.9371,-88.0018
"Trego","WI",45.9049,-91.8286
"Brill","WI",45.6027,-91.6721
"Spooner","WI",45.8271,-91.886
"Brodhead","WI",42.6168,-89.3757
"Carlsville","WI",44.9517,-87.3368
"Browns Lake","WI",42.6908,-88.2308
"Turtle Lake","WI",45.3934,-92.1451
"La Farge","WI",43.5782,-90.6381
"Utica","WI",43.0222,-88.4848
"Sharon","WI",42.5048,-88.7395
"Owen","WI",44.9485,-90.5621
"Poy Sippi","WI",44.136,-88.9963
"Forestville","WI",44.6907,-87.4787
"Arkdale","WI",44.0252,-89.8862
"Suamico","WI",44.6352,-88.0664
"Pewaukee","WI",43.0854,-88.2525
"Park Falls","WI",45.9348,-90.4463
"Plainfield","WI",44.2175,-89.497
"Edmund","WI",42.9662,-90.2644
"Mount Tabor","WI",43.7005,-90.4543
"Deerbrook","WI",45.2336,-89.1557
"Bay City","WI",44.5872,-92.4573
"Coleman","WI",45.0695,-88.0348
"Fond du Lac","WI",43.772,-88.4396
"Eagle","WI",42.879,-88.4696
"Hartland","WI",43.1027,-88.34
"Lakewood","WI",45.3006,-88.5145
"Saint Nazianz","WI",44.0067,-87.9246
"Lake Nebagamon","WI",46.512,-91.6995
"Taycheedah","WI",43.8122,-88.3914
"Clayton","WI",45.326,-92.171
"Edgerton","WI",42.8385,-89.0698
"Hartford","WI",43.3218,-88.3781
"Cedar Grove","WI",43.5682,-87.8243
"Langes Corners","WI",44.3855,-87.8609
"Hilbert","WI",44.1419,-88.1607
"Elkhorn","WI",42.6711,-88.5377
"Lake Koshkonong","WI",42.8838,-88.9424
"Hanover","WI",42.6389,-89.1713
"Valton","WI",43.573,-90.2743
"Siren","WI",45.7826,-92.3823
"Van Buskirk","WI",46.3872,-90.1435
"Newry","WI",43.7116,-90.8174
"Rhinelander","WI",45.6361,-89.4256
"Nelsonville","WI",44.4937,-89.309
"Cazenovia","WI",43.5237,-90.1991
"Glen Haven","WI",42.8313,-91.0633
"Williams Bay","WI",42.577,-88.5432
"Tainter Lake","WI",44.9882,-91.8437
"Baraboo","WI",43.4696,-89.7378
"Wild Rose","WI",44.1788,-89.2442
"Lampson","WI",45.983,-91.8163
"Wabeno","WI",45.4394,-88.6581
"Bell Center","WI",43.2916,-90.8256
"Peshtigo","WI",45.0556,-87.7476
"Plover","WI",44.4614,-89.5383
"Briggsville","WI",43.655,-89.5854
"Benoit","WI",46.5019,-91.0769
"Rozellville","WI",44.7433,-90.0246
"Chaseburg","WI",43.6598,-91.0971
"Waukau","WI",43.9862,-88.7706
"Sobieski","WI",44.7227,-88.0659
"Connorsville","WI",45.1361,-92.0949
"Janesville","WI",42.6855,-89.0136
"Lake Shangrila","WI",42.5053,-88.0706
"Lake Wazeecha","WI",44.3709,-89.7552
"Hustler","WI",43.8773,-90.2658
"Brackett","WI",44.7013,-91.351
"Necedah","WI",44.0234,-90.0716
"Sayner","WI",45.991,-89.5332
"Dunbar","WI",45.647,-88.1753
"Norwalk","WI",43.8342,-90.6269
"Arlington","WI",43.335,-89.3725
"Land O' Lakes","WI",46.1613,-89.2187
"Twin Lakes","WI",42.5192,-88.2489
"Marinette","WI",45.0873,-87.6324
"Milltown","WI",45.5264,-92.5011
"New Lisbon","WI",43.8781,-90.1627
"Phillips","WI",45.6958,-90.4018
"Wilson","WI",44.9586,-92.1705
"Ontario","WI",43.7222,-90.5941
"Warrens","WI",44.1287,-90.5157
"Pleasant Prairie","WI",42.5265,-87.8895
"Blueberry","WI",46.5802,-91.6688
"Lodi","WI",43.3151,-89.5371
"Maplewood","WI",44.7475,-87.4793
"Irma","WI",45.3514,-89.6665
"Muskego","WI",42.886,-88.1291
"Manitowoc","WI",44.0991,-87.6811
"Suring","WI",45.0007,-88.3693
"Frederic","WI",45.6548,-92.4647
"Brooks","WI",43.8253,-89.6446
"Kronenwetter","WI",44.8164,-89.5807
"Nichols","WI",44.5672,-88.4677
"Emerald","WI",45.0833,-92.2579
"Little Rapids","WI",44.3803,-88.1273
"Centuria","WI",45.4497,-92.5579
"Alderley","WI",43.2175,-88.4498
"Lake Hallie","WI",44.8921,-91.42
"Haven","WI",43.8483,-87.7534
"Wyocena","WI",43.4931,-89.3099
"Rosendale","WI",43.8079,-88.6731
"Stone Lake","WI",45.8444,-91.5501
"Ladysmith","WI",45.4607,-91.0972
"Birchwood","WI",45.6577,-91.5507
"Augusta","WI",44.6784,-91.1203
"Oxford","WI",43.7797,-89.5624
"Rome","WI",42.9823,-88.6389
"Gordon","WI",46.2409,-91.7995
"Kenosha","WI",42.5863,-87.8759
"Gagen","WI",45.6625,-89.1382
"Webster","WI",45.8798,-92.3628
"Cavour","WI",45.6522,-88.6296
"Union Center","WI",43.6826,-90.2635
"Doering","WI",45.2352,-89.4582
"Slinger","WI",43.3317,-88.2799
"Pardeeville","WI",43.5359,-89.301
"Argyle","WI",42.7014,-89.8658
"Balsam Lake","WI",45.4585,-92.4529
"Granton","WI",44.5887,-90.4615
"Wauzeka","WI",43.0851,-90.8995
"Hager City","WI",44.6012,-92.5336
"Bancroft","WI",44.3093,-89.5071
"Abbotsford","WI",44.9437,-90.3148
"Holcombe","WI",45.2261,-91.1217
"Waumandee","WI",44.3023,-91.7051
"McNaughton","WI",45.7325,-89.5443
"Hixton","WI",44.3831,-91.0151
"Stanley","WI",44.9596,-90.943
"Wiota","WI",42.6367,-89.9493
"Darien","WI",42.6007,-88.713
"Germania","WI",43.8905,-89.2571
"Elton","WI",45.1683,-88.8865
"Elroy","WI",43.742,-90.2705
"Lake Tomahawk","WI",45.811,-89.5873
"Wheeler","WI",45.0441,-91.9037
"Long Lake","WI",45.843,-88.6674
"Willard","WI",44.735,-90.7193
"Tripoli","WI",45.5552,-89.994
"Yellow Lake","WI",45.9366,-92.3902
"Jefferson","WI",43.0044,-88.8084
"Hales Corners","WI",42.941,-88.0491
"Superior Village","WI",46.6569,-92.1044
"Peru","WI",44.57,-89.2434
"Elmwood Park","WI",42.6917,-87.8223
"Caroline","WI",44.722,-88.8948
"Wittenberg","WI",44.827,-89.1665
"Dresser","WI",45.3617,-92.6345
"Evergreen","WI",44.8425,-89.6376
"Theresa","WI",43.5164,-88.454
"Woodman","WI",43.0925,-90.797
"Reedsville","WI",44.1525,-87.9517
"Dorchester","WI",45.0025,-90.3308
"Sussex","WI",43.1339,-88.2232
"Lac La Belle","WI",43.1428,-88.5302
"Wind Point","WI",42.7814,-87.772
"Union Grove","WI",42.6869,-88.0502
"New Franken","WI",44.5308,-87.8259
"Upson","WI",46.3691,-90.4068
"Mukwonago","WI",42.8566,-88.327
"Joel","WI",45.3605,-92.2346
"Lake Ripley","WI",43.0045,-88.9829
"Juda","WI",42.59,-89.5092
"Watertown","WI",43.1893,-88.7285
"Ripon","WI",43.8436,-88.8386
"Woodford","WI",42.6476,-89.8598
"Hollister","WI",45.248,-88.7915
"Westfield","WI",43.8851,-89.4926
"Green Lake","WI",43.8437,-88.9566
"Lac du Flambeau","WI",45.9696,-89.8995
"Bloomer","WI",45.103,-91.4913
"New Glarus","WI",42.813,-89.6337
"Cambridge","WI",43.0071,-89.0214
"Clinton","WI",42.5574,-88.8679
"Egg Harbor","WI",45.0528,-87.2826
"Rewey","WI",42.8419,-90.3961
"Onalaska","WI",43.888,-91.2074
"Dayton","WI",42.8269,-89.5132
"Batavia","WI",43.5944,-88.0509
"North Bay","WI",42.7645,-87.781
"Grantsburg","WI",45.7813,-92.6836
"Middleton","WI",43.1064,-89.5059
"Winneconne","WI",44.1112,-88.7115
"Blanchardville","WI",42.8095,-89.8606
"Butternut","WI",46.0138,-90.4988
"Amery","WI",45.3045,-92.3635
"Allenville","WI",44.133,-88.619
"Newburg","WI",43.4321,-88.0476
"Keshena","WI",44.8697,-88.6002
"Gilman","WI",45.1662,-90.8072
"Herbster","WI",46.8421,-91.2419
"Ashland","WI",46.5801,-90.8715
"Curtiss","WI",44.9521,-90.435
"Bethesda","WI",42.9878,-88.3184
"Waterford","WI",42.7647,-88.2159
"Rochester","WI",42.7338,-88.2489
"Hatley","WI",44.8866,-89.3371
"Ogema","WI",45.451,-90.2927
"Orfordville","WI",42.6294,-89.2572
"Delavan","WI",42.6281,-88.6324
"Deerfield","WI",43.0492,-89.0762
"Gays Mills","WI",43.322,-90.8489
"Sparta","WI",43.9376,-90.813
"Crandon","WI",45.5686,-88.8973
"De Forest","WI",43.232,-89.3424
"Medina","WI",44.2728,-88.6379
"Gilmanton","WI",44.4738,-91.6785
"Wilton","WI",43.8132,-90.5268
"Belgium","WI",43.5019,-87.8476
"White Lake","WI",45.1617,-88.7704
"Boardman","WI",45.0655,-92.5999
"De Soto","WI",43.4283,-91.1963
"Laona","WI",45.5597,-88.6697
"La Crosse","WI",43.8241,-91.2268
"Hobart","WI",44.4965,-88.1602
"Millston","WI",44.1885,-90.6447
"Burnett","WI",43.5064,-88.7083
"Little Round Lake","WI",45.9697,-91.367
"Carter","WI",45.3908,-88.6279
"Northport","WI",44.4082,-88.8038
"Whitewater","WI",42.8372,-88.7341
"Pound","WI",45.0956,-88.0334
"Woodville","WI",44.9484,-92.2852
"Horicon","WI",43.4453,-88.6399
"Sister Bay","WI",45.1835,-87.1271
"Stevens Point","WI",44.5241,-89.5508
"Chenequa","WI",43.1229,-88.3838
"Vaudreuil","WI",44.3064,-90.8099
"West Bloomfield","WI",44.2208,-88.9718
"Helenville","WI",43.0165,-88.6999
"Sandy Hook","WI",42.5466,-90.6168
"Cecil","WI",44.8107,-88.4485
"Kewaunee","WI",44.4607,-87.5133
"Neopit","WI",44.9877,-88.8227
"Hines","WI",46.543,-91.9082
"Oliver","WI",46.6493,-92.1883
"Prairie du Chien","WI",43.0434,-91.1383
"Martinsville","WI",43.1803,-89.5901
"Tigerton","WI",44.7409,-89.0459
"Clear Lake","WI",45.2492,-92.2675
"River Hills","WI",43.1717,-87.9353
"Kimberly","WI",44.267,-88.3377
"Goodman","WI",45.6231,-88.3518
"Harshaw","WI",45.6655,-89.6554
"Sun Prairie","WI",43.1829,-89.2353
"Big Bend","WI",42.9024,-88.2123
"Ephraim","WI",45.1589,-87.1667
"Prairie du Sac","WI",43.292,-89.7352
"Oshkosh","WI",44.0228,-88.5616
"Edgewood","WI",43.0625,-88.3018
"Evansville","WI",42.7781,-89.2967
"Marengo","WI",46.4219,-90.8081
"Marshfield","WI",44.6627,-90.1728
"Ingram","WI",45.5056,-90.8137
"Potter Lake","WI",42.8196,-88.3487
"Winnebago","WI",44.0758,-88.5251
"Grafton","WI",43.3204,-87.948
"Casco","WI",44.5557,-87.6197
"Cudahy","WI",42.9467,-87.8639
"Elderon","WI",44.7843,-89.248
"Sheboygan","WI",43.7447,-87.7322
"Bloom City","WI",43.4944,-90.4649
"Stitzer","WI",42.9267,-90.6232
"Caledonia","WI",42.7987,-87.8762
"Little Sturgeon","WI",44.8422,-87.5743
"Clearwater Lake","WI",45.8536,-89.1882
"Black Creek","WI",44.4741,-88.4507
"Kennan","WI",45.5301,-90.5868
"Dellwood","WI",43.9544,-89.9341
"Saint Croix Falls","WI",45.4101,-92.6268
"Ellison Bay","WI",45.2551,-87.0729
"East Troy","WI",42.7848,-88.3973
"Wautoma","WI",44.0669,-89.2915
"Benton","WI",42.5701,-90.383
"Loyal","WI",44.7366,-90.4959
"Eagleton","WI",45.0602,-91.3893
"Thorp","WI",44.958,-90.8023
"Cutler","WI",44.0258,-90.2368
"Menomonee Falls","WI",43.1487,-88.1227
"Leland","WI",43.3355,-89.9476
"Rock Springs","WI",43.479,-89.9177
"Luck","WI",45.5718,-92.4667
"Rothschild","WI",44.8761,-89.6173
"Riplinger","WI",44.825,-90.4032
"Fall River","WI",43.3856,-89.0456
"Lewis","WI",45.7159,-92.3965
"Kingston","WI",43.6935,-89.1304
"Fennimore","WI",42.9793,-90.6491
"Weston","WI",44.8906,-89.5487
"Mayville","WI",43.4986,-88.5475
"Iron Belt","WI",46.403,-90.3192
"Marathon","WI",44.9338,-89.8404
"Amherst Junction","WI",44.4685,-89.317
"Germantown","WI",43.2343,-88.1217
"Menominee","WI",44.8893,-91.9085
"Boyceville","WI",45.0427,-92.0384
"Ellsworth","WI",44.7364,-92.4806
"Steuben","WI",43.1833,-90.8569
"Brillion","WI",44.1755,-88.0708
"New London","WI",44.395,-88.7393
"Hammond","WI",44.969,-92.438
"Reedsburg","WI",43.5345,-89.9971
"Elkhart Lake","WI",43.8321,-88.0147
"North Hudson","WI",44.9974,-92.7565
"Tichigan","WI",42.8088,-88.215
"Port Washington","WI",43.3847,-87.8852
"Doylestown","WI",43.4276,-89.1457
"Middle Village","WI",44.9347,-88.7334
"Fairwater","WI",43.7424,-88.868
"Drummond","WI",46.3436,-91.25
"Maiden Rock","WI",44.566,-92.3083
"Sullivan","WI",43.0118,-88.5903
"Genesee Depot","WI",42.9667,-88.3712
"Independence","WI",44.3328,-91.4172
"Kiel","WI",43.9167,-88.0266
"Westby","WI",43.653,-90.8584
"Mount Horeb","WI",43.006,-89.7317
"Lake Wisconsin","WI",43.3782,-89.5763
"Random Lake","WI",43.5541,-87.9548
"Whitelaw","WI",44.1452,-87.8281
"Rib Mountain","WI",44.9196,-89.6771
"Forest Junction","WI",44.2139,-88.1496
"West Milwaukee","WI",43.0124,-87.971
"Liberty Pole","WI",43.49,-90.9087
"Camp Douglas","WI",43.9197,-90.2697
"Tomahawk","WI",45.4746,-89.7228
"Dodgeville","WI",42.966,-90.1297
"Benderville","WI",44.6114,-87.8551
"Waubeka","WI",43.4702,-87.9921
"Navarino","WI",44.6108,-88.4936
"Clam Lake","WI",46.1579,-90.9056
"Trempealeau","WI",44.0028,-91.4285
"Loganville","WI",43.4387,-90.0371
"Sauk City","WI",43.2721,-89.7306
"Fountain City","WI",44.1201,-91.6969
"Sextonville","WI",43.2797,-90.2922
"Pilsen","WI",44.4436,-87.7251
"Oneida","WI",44.4986,-88.1829
"Legend Lake","WI",44.8909,-88.544
"Lomira","WI",43.5945,-88.4421
"Dickeyville","WI",42.6249,-90.5915
"Fall Creek","WI",44.7639,-91.2783
"Mattoon","WI",45.0046,-89.0411
"Shiocton","WI",44.4449,-88.5768
"Namekagon","WI",46.2127,-91.0455
"South Milwaukee","WI",42.9119,-87.8624
"Astico","WI",43.333,-88.9398
"Rio","WI",43.4497,-89.2388
"Menchalville","WI",44.2258,-87.8823
"Elm Grove","WI",43.048,-88.0867
"Marion","WI",44.6744,-88.8902
"Darlington","WI",42.6779,-90.1189
"Daleyville","WI",42.915,-89.8148
"Dalton","WI",43.6562,-89.2069
"Johnson Creek","WI",43.0812,-88.7702
"Cadott","WI",44.9502,-91.1532
"Kekoskee","WI",43.5269,-88.5616
"Mondovi","WI",44.5712,-91.6667
"Springbrook","WI",45.9468,-91.6891
"Jackson","WI",43.3244,-88.1668
"Maribel","WI",44.2775,-87.8025
"Fontana","WI",42.5514,-88.5751
"Tisch Mills","WI",44.3272,-87.6237
"Bayfield","WI",46.8141,-90.8226
"Francis Creek","WI",44.2005,-87.7208
"Unity","WI",44.8511,-90.3131
"Foster","WI",44.643,-91.3118
"Lohrville","WI",44.0382,-89.1201
"Butler","WI",43.1085,-88.0713
"Leyden","WI",42.7308,-89.129
"Fenwood","WI",44.8658,-90.0146
"Clintonville","WI",44.6222,-88.7513
"Appleton","WI",44.2774,-88.3894
"Linden","WI",42.9186,-90.2742
"Boaz","WI",43.3299,-90.5277
"La Valle","WI",43.583,-90.1304
"Glen Flora","WI",45.497,-90.8935
"Diamond Bluff","WI",44.649,-92.6189
"Blair","WI",44.3083,-91.2425
"Shullsburg","WI",42.5733,-90.2348
"Oregon","WI",42.9252,-89.3887
"Brookfield","WI",43.064,-88.1232
"Walworth","WI",42.5305,-88.594
"Boulder Junction","WI",46.1126,-89.6452
"Berlin","WI",43.9704,-88.9505
"Cambria","WI",43.5416,-89.1108
"Chief Lake","WI",45.9213,-91.3312
"West Salem","WI",43.8989,-91.0882
"Barneveld","WI",43.0117,-89.8969
"Jim Falls","WI",45.0472,-91.2712
"Monticello","WI",42.7455,-89.5899
"King","WI",44.34,-89.1231
"Soldiers Grove","WI",43.3921,-90.7735
"Franksville","WI",42.76,-87.9134
"Spring Valley","WI",44.8502,-92.2435
"Ashippun","WI",43.2182,-88.5159
"South Superior","WI",46.6694,-92.0952
"Edgar","WI",44.9227,-89.9635
"Cochrane","WI",44.2281,-91.8391
"Dousman","WI",43.0076,-88.4768
"Chain O' Lakes","WI",44.3318,-89.1671
"Nekoosa","WI",44.3135,-89.9073
"Hollandale","WI",42.8756,-89.9342
"Dane","WI",43.2499,-89.4996
"Cottage Grove","WI",43.0913,-89.2023
"Friendship","WI",43.972,-89.8202
"Borth","WI",44.0911,-88.8959
"Cornucopia","WI",46.8567,-91.1083
"Krakow","WI",44.7585,-88.2611
"Cushing","WI",45.5705,-92.651
"Arpin","WI",44.5394,-90.0315
"Adell","WI",43.6214,-87.9482
"Stratford","WI",44.8009,-90.0722
"Glidden","WI",46.1346,-90.5721
"Vesper","WI",44.4805,-89.9676
"Stetsonville","WI",45.0772,-90.3143
"Tunnel City","WI",44.005,-90.5679
"Lancaster","WI",42.8474,-90.7065
"Saint Francis","WI",42.9716,-87.873
"Reserve","WI",45.8338,-91.3545
"Rockdale","WI",42.9717,-89.0319
"Elcho","WI",45.4353,-89.1853
"Muscoda","WI",43.1872,-90.4335
"Sheboygan Falls","WI",43.7289,-87.8266
"Camp Lake","WI",42.5279,-88.1436
"Lake Delton","WI",43.5936,-89.7845
"Sherwood","WI",44.1764,-88.2757
"Argonne","WI",45.6582,-88.8777
"Solon Springs","WI",46.3495,-91.8208
"Cobb","WI",42.9661,-90.3296
"Leopolis","WI",44.7654,-88.8447
"Eagle River","WI",45.9245,-89.2562
"Prentice","WI",45.5408,-90.2898
"Lily","WI",45.3069,-88.854
"Lake Five","WI",43.1925,-88.2709
"Wentworth","WI",46.5999,-91.836
"West Baraboo","WI",43.4814,-89.7719
"De Pere","WI",44.4313,-88.0793
"Stoughton","WI",42.9237,-89.2219
"Loyd","WI",43.423,-90.2429
"North Prairie","WI",42.9357,-88.4038
"Plat","WI",43.2078,-88.2809
"Fish Creek","WI",45.1278,-87.2471
"Brooklyn","WI",42.8524,-89.3723
"Waterville","WI",43.02,-88.4382
"Dotyville","WI",43.7522,-88.2609
"Conrath","WI",45.3842,-91.0357
"Footville","WI",42.6715,-89.2084
"Couderay","WI",45.7976,-91.3005
"Fairchild","WI",44.6036,-90.9577
"Princeton","WI",43.8527,-89.1305
"Schofield","WI",44.9147,-89.6158
"West Allis","WI",43.0068,-88.0296
"Stevenstown","WI",44.0364,-91.1715
"High Bridge","WI",46.3888,-90.7363
"Livingston","WI",42.9001,-90.4336
"Readstown","WI",43.4485,-90.759
"Butte des Morts","WI",44.1059,-88.6564
"Monches","WI",43.1911,-88.3437
"Oostburg","WI",43.6238,-87.7889
"New Post","WI",45.8965,-91.193
"Tomah","WI",43.9883,-90.4996
"Big Falls","WI",44.6175,-89.0166
"Marshall","WI",43.1726,-89.0614
"Potosi","WI",42.6875,-90.7108
"Saint Peter","WI",43.8377,-88.3465
"Downsville","WI",44.771,-91.9259
"Altoona","WI",44.803,-91.4386
"Niagara","WI",45.7801,-87.9991
"Harrison","WI",44.1923,-88.2913
"Cleveland","WI",43.9177,-87.7469
"Rockfield","WI",43.2575,-88.1262
"Mercer","WI",46.1635,-90.0528
"Holmen","WI",43.9702,-91.269
"Werley","WI",43.0194,-90.7654
"Allouez","WI",44.4721,-88.0261
"Spread Eagle","WI",45.8819,-88.1399
"Hustisford","WI",43.3458,-88.6048
"Cumberland","WI",45.5358,-92.0259
"Arnott","WI",44.4572,-89.4468
"Maple Bluff","WI",43.1131,-89.3718
"Barronett","WI",45.6363,-91.9942
"Athens","WI",45.0349,-90.0792
"Iron River","WI",46.567,-91.407
"Yuba","WI",43.5364,-90.4267
"Pulaski","WI",44.6684,-88.2353
"Pearson","WI",45.3641,-89.0165
"Wisconsin Dells","WI",43.6337,-89.7752
"Viola","WI",43.507,-90.6735
"Cassville","WI",42.7156,-90.9897
"Scandinavia","WI",44.4608,-89.146
"Fox Point","WI",43.1581,-87.9013
"Lowell","WI",43.3363,-88.8183
"Valley","WI",43.6416,-90.5418
"Abrams","WI",44.7796,-88.0605
"Cable","WI",46.2013,-91.2933
"West Bend","WI",43.4184,-88.1822
"Woodruff","WI",45.8946,-89.6912
"Mount Hope","WI",42.9696,-90.8591
"Lannon","WI",43.1522,-88.1604
"Lynxville","WI",43.2493,-91.0464
"Galesville","WI",44.0839,-91.358
"Fairview","WI",43.368,-90.9429
"Blue River","WI",43.1844,-90.5718
"Embarrass","WI",44.6684,-88.7037
"Combined Locks","WI",44.2643,-88.3064
"Waukesha","WI",43.0087,-88.2464
"Pickett","WI",43.9114,-88.7298
"Alma","WI",44.3366,-91.9222
"Institute","WI",44.8933,-87.287
"Bear Creek","WI",44.5313,-88.7275
"Thiensville","WI",43.2361,-87.9785
"Howards Grove","WI",43.8261,-87.8232
"Iron Ridge","WI",43.3982,-88.532
"Polonia","WI",44.5756,-89.4118
"Bristol","WI",42.5378,-88.0149
"Mosinee","WI",44.7874,-89.6839
"Glendale","WI",43.1288,-87.9277
"Monroe","WI",42.6026,-89.6374
"Eureka","WI",44.0072,-88.8426
"Bluffview","WI",43.3641,-89.773
"Whiting","WI",44.4907,-89.56
"Two Rivers","WI",44.1564,-87.5824
"Wisconsin Rapids","WI",44.3928,-89.8265
"Whitehall","WI",44.3705,-91.3476
"Gresham","WI",44.8478,-88.7855
"Mount Calvary","WI",43.8263,-88.2461
"Maine","WI",45.0504,-89.6826
"Chetek","WI",45.316,-91.6533
"Pulcifer","WI",44.8476,-88.3592
"Minocqua","WI",45.8788,-89.7033
"Milwaukee","WI",43.064,-87.9669
"Washburn","WI",46.6769,-90.9017
"Randolph","WI",43.5396,-89.0029
"Algoma","WI",44.6057,-87.4464
"Nelson","WI",44.4214,-92.0045
"Pigeon Falls","WI",44.4246,-91.2082
"Albany","WI",42.7069,-89.4367
"Ogdensburg","WI",44.4535,-89.0316
"Mount Sterling","WI",43.3163,-90.9292
"Stonebank","WI",43.1425,-88.4107
"Spring Green","WI",43.1776,-90.0688
"Sheldon","WI",45.3119,-90.9567
"Antigo","WI",45.1415,-89.1556
"Colby","WI",44.9107,-90.3159
"Cooksville","WI",42.8353,-89.2407
"Tilleda","WI",44.8155,-88.9125
"Bloomington","WI",42.8932,-90.9264
"Browntown","WI",42.5788,-89.7894
"Bellevue","WI",44.4593,-87.9554
"Custer","WI",44.5105,-89.4262
"Auburndale","WI",44.6266,-90.0144
"Glenwood City","WI",45.057,-92.1715
"Richwood","WI",43.2414,-88.7832
"Van Dyne","WI",43.8862,-88.5012
"Downing","WI",45.0498,-92.1243
"Foxboro","WI",46.4986,-92.288
"Mequon","WI",43.2352,-87.9838
"Post Lake","WI",45.4352,-89.0921
"Catawba","WI",45.5371,-90.5335
"Three Lakes","WI",45.8047,-89.1708
"Greenwood","WI",44.7655,-90.5988
"Nashotah","WI",43.0938,-88.4037
"Boscobel","WI",43.1436,-90.6955
"Shorewood Hills","WI",43.0788,-89.447
"Cashton","WI",43.7411,-90.7869
"Roberts","WI",44.9732,-92.5506
"Tonet","WI",44.5892,-87.7337
"Ridgeland","WI",45.2025,-91.8965
"Fort Atkinson","WI",42.9253,-88.8441
"Hertel","WI",45.8086,-92.1752
"Big Spring","WI",43.6694,-89.6437
"Moquah","WI",46.5705,-91.0832
"Weyauwega","WI",44.324,-88.9332
"Oconto Falls","WI",44.8738,-88.1444
"Dyckesville","WI",44.6404,-87.7656
"Black River Falls","WI",44.2981,-90.8421
"Menasha","WI",44.2125,-88.4271
"Mole Lake","WI",45.4859,-88.9823
"Pepin","WI",44.4423,-92.1482
"Belmont","WI",42.7379,-90.3346
"Grand Marsh","WI",43.8852,-89.7072
"Coon Valley","WI",43.7024,-91.0112
"Lublin","WI",45.0749,-90.7238
"London","WI",43.0478,-89.0129
"Sturgeon Bay","WI",44.8228,-87.366
"Pelican Lake","WI",45.4994,-89.1668
"Elmwood","WI",44.7799,-92.1491
"Potter","WI",44.1202,-88.0991
"Sheridan","WI",44.3958,-89.1982
"Brandon","WI",43.7352,-88.7822
"Okauchee","WI",43.1136,-88.4359
"North Freedom","WI",43.459,-89.8603
"Merrillan","WI",44.4504,-90.8355
"Melrose","WI",44.1316,-90.9969
"Wales","WI",43.0041,-88.374
"White Creek","WI",43.8258,-89.8548
"Newald","WI",45.7396,-88.7004
"Luxemburg","WI",44.5449,-87.7065
"Zoar","WI",45.0178,-88.8945
"Prairie Farm","WI",45.2368,-91.9804
"Glenbeulah","WI",43.7982,-88.0465
"Barron","WI",45.4015,-91.8475
"Blue Mounds","WI",43.0178,-89.8268
"Patch Grove","WI",42.9404,-90.9723
"Markesan","WI",43.7099,-88.9907
"Jump River","WI",45.3555,-90.7966
"Knowles","WI",43.5728,-88.5043
"Euren","WI",44.6183,-87.6023
"Northwoods Beach","WI",45.9141,-91.4035
"Mason","WI",46.4354,-91.06
"Oakfield","WI",43.6843,-88.5476
"Bryant","WI",45.208,-89.024
"Birnamwood","WI",44.9319,-89.2094
"Arcadia","WI",44.2486,-91.4921
"Alma Center","WI",44.437,-90.9128
"Eden","WI",43.6928,-88.3642
"Whitefish Bay","WI",43.1132,-87.9004
"Jericho","WI",42.8783,-88.4229
"Neosho","WI",43.3101,-88.5192
"Lena","WI",44.953,-88.0476
"Tennyson","WI",42.6907,-90.6869
"Pence","WI",46.4104,-90.2695
"Cascade","WI",43.6598,-88.0075
"Range","WI",45.3955,-92.2846
"Deer Park","WI",45.1887,-92.3879
"Albertville","WI",44.96,-91.6004
"Brownsville","WI",43.6145,-88.495
"Waunakee","WI",43.1833,-89.4433
"Kendall","WI",43.7926,-90.3677
"Madison","WI",43.0808,-89.3922
"Taylor","WI",44.3217,-91.1205
"Brule","WI",46.5589,-91.5712
"Oak Creek","WI",42.8803,-87.9008
"Wayside","WI",44.2553,-87.9526
"Wausau","WI",44.9615,-89.6436
"Shawano","WI",44.7749,-88.5844
"Meridean","WI",44.738,-91.791
"Bangor","WI",43.8921,-90.989
"Ashwaubenon","WI",44.4795,-88.0889
"Amherst","WI",44.4474,-89.2832
"Cameron","WI",45.4057,-91.7423
"Summit Lake","WI",45.3759,-89.2045
"Knowlton","WI",44.7189,-89.6803
"Delavan Lake","WI",42.5987,-88.6177
"Angelica","WI",44.675,-88.3216
"Hawkins","WI",45.5114,-90.7148
"Brown Deer","WI",43.1743,-87.975
"Dallas","WI",45.2591,-91.8142
"Cornell","WI",45.1632,-91.1497
"Oconto","WI",44.8918,-87.8692
"Postville","WI",42.7992,-89.7529
"Arkansaw","WI",44.6334,-92.0222
"Prescott","WI",44.7522,-92.7882
"South Wayne","WI",42.5673,-89.8761
"Cross Plains","WI",43.1147,-89.648
"Brokaw","WI",45.0274,-89.6573
"Dundas","WI",44.2342,-88.1984
"Saxon","WI",46.4941,-90.41
"Ada","WI",43.8769,-87.8956
"Brantwood","WI",45.5627,-90.1151
"Crivitz","WI",45.2337,-88.0067
"Pella","WI",44.7426,-88.8224
"Calamine","WI",42.7425,-90.1621
"French Island","WI",43.8593,-91.2614
"Racine","WI",42.7274,-87.8135
"Richfield","WI",43.2372,-88.2413
"Osseo","WI",44.5795,-91.212
"Redgranite","WI",44.0513,-89.1058
"Waupun","WI",43.6314,-88.7379
"Esofea","WI",43.6311,-90.9632
"Campia","WI",45.5375,-91.6657
"Humbird","WI",44.5294,-90.8861
"Stoddard","WI",43.6625,-91.218
"Lake Mills","WI",43.0774,-88.9055
"Bonduel","WI",44.7383,-88.4475
"McFarland","WI",43.019,-89.292
"Como","WI",42.6114,-88.4914
"Superior","WI",46.6941,-92.0823
"Chili","WI",44.6296,-90.3583
"Dexterville","WI",44.3764,-90.1107
"North Cape","WI",42.7786,-88.0709
"Shell Lake","WI",45.7322,-91.9033
"Milladore","WI",44.6057,-89.8549
"Green Bay","WI",44.515,-87.9896
"Waldo","WI",43.6766,-87.9478
"Ettrick","WI",44.1696,-91.2651
"Knapp","WI",44.9514,-92.0769
"Hurley","WI",46.4468,-90.1993
"Red Cliff","WI",46.8555,-90.788
"Osceola","WI",45.3193,-92.6936
"Mellen","WI",46.324,-90.6607
"Belleville","WI",42.8642,-89.5402
"Franklin","WI",42.8854,-88.0104
"Palmyra","WI",42.8811,-88.5999
"Yorkville","WI",42.742,-88.0268
"Highland","WI",43.0475,-90.3801
"Chelsea","WI",45.2926,-90.3054
"Cataract","WI",44.0867,-90.8384
"Ferryville","WI",43.3516,-91.0935
"Pittsville","WI",44.439,-90.1301
"Pembine","WI",45.6367,-87.9918
"Delafield","WI",43.072,-88.3913
"Allenton","WI",43.4204,-88.3443
"Anston","WI",44.6172,-88.1604
"Lunds","WI",44.6994,-88.5454
"Hebron","WI",42.9232,-88.6916
"New Richmond","WI",45.1226,-92.5338
"Grand View","WI",46.3681,-91.1035
"Caryville","WI",44.7513,-91.6746
"Milan","WI",44.9811,-90.1796
"Monroe Center","WI",44.1119,-89.9396
"Tony","WI",45.4804,-90.9971
"Florence","WI",45.925,-88.2525
"Colgate","WI",43.1931,-88.2068
"Eland","WI",44.867,-89.209
"Kellner","WI",44.3589,-89.7248
"Lone Rock","WI",43.1857,-90.2012
"Portage","WI",43.549,-89.4659
"Hudson","WI",44.964,-92.7319
"Odanah","WI",46.6121,-90.6992
"Amberg","WI",45.5062,-87.9874
"Price","WI",44.5816,-91.0546
"Rosholt","WI",44.6304,-89.3054
"Mishicot","WI",44.2303,-87.6422
"Stockbridge","WI",44.0717,-88.3105
"Elk Mound","WI",44.8744,-91.6863
"Houlton","WI",45.0632,-92.7908
"Hillsboro","WI",43.656,-90.3365
"Springfield","WI",42.6407,-88.4135
"Hewitt","WI",44.6425,-90.1048
"Exeland","WI",45.6669,-91.2425
"Montello","WI",43.7939,-89.3336
"Wauwatosa","WI",43.0615,-88.0347
"Kohler","WI",43.7363,-87.7794
"Neenah","WI",44.1671,-88.4761
"Hazel Green","WI",42.5341,-90.4362
"Somers","WI",42.6411,-87.8919
"Merrimac","WI",43.3741,-89.6273
"Okauchee Lake","WI",43.1248,-88.4408
"Avalon","WI",42.6328,-88.8676
"Babcock","WI",44.3044,-90.1076
"River Falls","WI",44.86,-92.6221
"Minong","WI",46.0978,-91.8263
"Reeseville","WI",43.3062,-88.8446
"Plain","WI",43.2779,-90.0423
"Star Prairie","WI",45.1975,-92.5321
"Lime Ridge","WI",43.4676,-90.1577
"Hayward","WI",46.0094,-91.4826
"Brice Prairie","WI",43.9375,-91.3074
"Bagley","WI",42.9013,-91.0974
"Milton","WI",42.7752,-88.9431
"Lyndon Station","WI",43.7088,-89.8937
"Bowler","WI",44.8627,-88.9814
"Poynette","WI",43.3922,-89.4058
"Sturtevant","WI",42.7005,-87.9021
"Gills Rock","WI",45.29,-87.0218
"Patzau","WI",46.4913,-92.2208
"Fox Lake","WI",43.5619,-88.913
"Hillsdale","WI",45.3158,-91.8596
"Plymouth","WI",43.7451,-87.9655
"Park Ridge","WI",44.52,-89.5463
"New Auburn","WI",45.1988,-91.5666
"Plum City","WI",44.6338,-92.1918
"Eau Claire","WI",44.8203,-91.4951
"New Berlin","WI",42.9726,-88.1291
"Neillsville","WI",44.5606,-90.5905
"Westboro","WI",45.3608,-90.2934
"Cedarburg","WI",43.2991,-87.9887
"Auroraville","WI",44.0519,-88.9926
"Crescent","WI",45.0677,-91.1468
"Juneau","WI",43.4053,-88.7041
"Waucousta","WI",43.6525,-88.2604
"Mauston","WI",43.7995,-90.0775
"Stockholm","WI",44.4852,-92.2633
"Rossmore","WV",37.805,-81.9923
"Mathias","WV",38.8779,-78.8661
"Hambleton","WV",39.0813,-79.6454
"Thurmond","WV",37.961,-81.0796
"Newell","WV",40.6179,-80.5999
"Bolivar","WV",39.3242,-77.7517
"Shinnston","WV",39.3923,-80.2989
"Wayne","WV",38.2233,-82.4429
"Bayard","WV",39.2711,-79.3662
"Colcord","WV",37.9443,-81.4371
"Pettry","WV",37.4362,-80.964
"Van","WV",37.9713,-81.7138
"Masontown","WV",39.5512,-79.8003
"Kiahsville","WV",38.0915,-82.3274
"Union","WV",37.5905,-80.5419
"Maybeury","WV",37.3675,-81.3572
"Bolt","WV",37.7623,-81.4189
"Nutter Fort","WV",39.2604,-80.3265
"Dailey","WV",38.7968,-79.8967
"Deep Water","WV",38.1217,-81.2528
"Montrose","WV",39.0671,-79.8144
"Star City","WV",39.6587,-79.9868
"Mineral Wells","WV",39.1806,-81.5129
"Eleanor","WV",38.5374,-81.9256
"Clendenin","WV",38.486,-81.3502
"Pea Ridge","WV",38.4154,-82.3188
"Henry","WV",39.2232,-79.4212
"Wellsburg","WV",40.2811,-80.6102
"McMechen","WV",39.9854,-80.7335
"Kimball","WV",37.4268,-81.5078
"Thomas","WV",39.1458,-79.4958
"Laneville","WV",38.974,-79.4173
"Paw Paw","WV",39.5313,-78.4553
"Brandywine","WV",38.6219,-79.2413
"Junior","WV",38.9783,-79.9505
"Millstone","WV",38.8015,-81.0962
"Cottageville","WV",38.8656,-81.8235
"Fellowsville","WV",39.3307,-79.8245
"Coalton","WV",38.8965,-79.9679
"Flemington","WV",39.2666,-80.1287
"South Charleston","WV",38.3482,-81.711
"Matewan","WV",37.6262,-82.1696
"Burlington","WV",39.337,-78.9223
"Barrackville","WV",39.5013,-80.1696
"Edray","WV",38.2746,-80.0915
"Parcoal","WV",38.4604,-80.3731
"Beech Bottom","WV",40.2181,-80.6588
"Mannington","WV",39.5274,-80.3409
"Erbacon","WV",38.519,-80.589
"Monongah","WV",39.4598,-80.2185
"Twilight","WV",37.9252,-81.6176
"Onego","WV",38.8479,-79.422
"Apple Grove","WV",38.6663,-82.1706
"Strange Creek","WV",38.5632,-80.8979
"Sylvester","WV",38.008,-81.5623
"Bergoo","WV",38.4849,-80.2981
"Sissonville","WV",38.5042,-81.6398
"Buckhannon","WV",38.9927,-80.2279
"Ellamore","WV",38.9243,-80.0904
"Clay","WV",38.4662,-81.0814
"Glen Rogers","WV",37.7154,-81.4179
"Spencer","WV",38.8025,-81.3534
"Great Cacapon","WV",39.6144,-78.2857
"Webb","WV",37.9698,-82.4824
"Durbin","WV",38.5471,-79.8278
"Ivydale","WV",38.5357,-81.0348
"Kermit","WV",37.8425,-82.4084
"Bartow","WV",38.5422,-79.7859
"Culloden","WV",38.4159,-82.0722
"Clearco","WV",38.0934,-80.5693
"Justice","WV",37.5992,-81.8381
"Thornton","WV",39.3456,-79.942
"Daniels","WV",37.724,-81.1267
"Point Pleasant","WV",38.8529,-82.1303
"Reader","WV",39.5689,-80.7316
"Clifftop","WV",38.0043,-80.944
"Core","WV",39.6801,-80.1073
"Kopperston","WV",37.7502,-81.5764
"Stirrat","WV",37.7265,-82.0023
"Slaty Fork","WV",38.4165,-80.1267
"Kingwood","WV",39.4719,-79.6822
"Tanner","WV",38.9815,-80.9496
"Orlando","WV",38.8712,-80.5937
"Mount Nebo","WV",38.2001,-80.8512
"Clarksburg","WV",39.2863,-80.323
"Fort Ashby","WV",39.4966,-78.7631
"Slanesville","WV",39.3732,-78.5228
"Bemis","WV",38.8121,-79.7389
"Murphytown","WV",39.234,-81.4435
"Zela","WV",38.2859,-80.9498
"Charlton Heights","WV",38.1255,-81.2333
"Bartley","WV",37.3373,-81.7334
"Webster Springs","WV",38.4793,-80.4134
"Camden on Gauley","WV",38.3668,-80.5956
"Coal City","WV",37.6776,-81.218
"Bald Knob","WV",37.8709,-81.6357
"Chapmanville","WV",37.9726,-82.0215
"Wheeling","WV",40.0755,-80.6951
"Craigsville","WV",38.3246,-80.645
"Herndon","WV",37.5054,-81.3404
"Fenwick","WV",38.2288,-80.5805
"Hurricane","WV",38.4294,-82.017
"Martinsburg","WV",39.4582,-77.9776
"Wolf Summit","WV",39.2822,-80.462
"Ronceverte","WV",37.7503,-80.4715
"Chauncey","WV",37.7652,-81.9834
"Bruno","WV",37.688,-81.8737
"McWhorter","WV",39.1273,-80.3829
"Lost Creek","WV",39.1627,-80.3484
"Glasgow","WV",38.2109,-81.4218
"Williamson","WV",37.6742,-82.271
"Falling Waters","WV",39.5637,-77.8874
"Friendly","WV",39.5136,-81.0615
"Delray","WV",39.1945,-78.6042
"Cedar Grove","WV",38.2223,-81.4376
"Glenville","WV",38.9379,-80.8339
"Greenview","WV",37.9963,-81.8202
"Schultz","WV",39.3201,-81.2401
"Riverton","WV",38.744,-79.4359
"Chesapeake","WV",38.2233,-81.5363
"Gilbert Creek","WV",37.5697,-81.8906
"Oakvale","WV",37.3323,-80.9703
"Pageton","WV",37.3599,-81.4648
"Montcalm","WV",37.3516,-81.2514
"Sophia","WV",37.7117,-81.2524
"Mill Creek","WV",38.7319,-79.9725
"Teays Valley","WV",38.4482,-81.924
"Romney","WV",39.3454,-78.7564
"Lizemores","WV",38.334,-81.1751
"Fairmont","WV",39.4768,-80.1491
"Logan","WV",37.8509,-81.9857
"Maben","WV",37.6387,-81.394
"Kanawha","WV",39.199,-81.4601
"Whitesville","WV",37.9825,-81.5367
"Green Bank","WV",38.4267,-79.8343
"Chattaroy","WV",37.7062,-82.2737
"Eccles","WV",37.7817,-81.2649
"Dunbar","WV",38.3688,-81.7345
"Green Spring","WV",39.5241,-78.6302
"Neibert","WV",37.7861,-81.9341
"Montgomery","WV",38.1741,-81.3241
"Newburg","WV",39.3889,-79.8536
"Hedgesville","WV",39.5544,-77.9944
"Pickens","WV",38.6559,-80.216
"Inwood","WV",39.3538,-78.0552
"Smithfield","WV",39.5012,-80.5551
"Tioga","WV",38.422,-80.6548
"Abbott","WV",38.9218,-80.3215
"Falling Spring","WV",37.9926,-80.3576
"Brooks","WV",37.7243,-80.8865
"Pentress","WV",39.7101,-80.1685
"Mellin","WV",39.1226,-81.1709
"Helen","WV",37.6373,-81.3131
"Fairview","WV",39.5927,-80.2469
"Mullens","WV",37.5811,-81.3855
"Gandeeville","WV",38.7051,-81.4104
"Rand","WV",38.2817,-81.5654
"Grantsville","WV",38.9204,-81.0934
"Beckley","WV",37.7878,-81.1841
"Augusta","WV",39.2954,-78.6378
"Dorcas","WV",38.939,-79.1061
"Pocatalico","WV",38.4904,-81.6473
"Omar","WV",37.7583,-81.9973
"Brookhaven","WV",39.6062,-79.8812
"Cairo","WV",39.2068,-81.1543
"Bancroft","WV",38.5107,-81.8418
"Barnabus","WV",37.744,-82.0093
"Raysal","WV",37.3367,-81.7712
"Gary","WV",37.3621,-81.5405
"Robertsburg","WV",38.6554,-81.9512
"Glen White","WV",37.73,-81.2797
"Robinette","WV",37.7856,-81.788
"Flatwoods","WV",38.7187,-80.654
"Jefferson","WV",38.3701,-81.7708
"Gap Mills","WV",37.5623,-80.4081
"Petersburg","WV",38.9957,-79.1276
"Frankford","WV",37.9251,-80.3845
"Granville","WV",39.6471,-79.9974
"Coxs Mills","WV",39.0445,-80.8268
"Carolina","WV",39.4795,-80.2728
"Mitchell Heights","WV",37.9088,-81.9867
"Elizabeth","WV",39.0618,-81.3976
"Eckman","WV",37.4046,-81.4643
"Saint Albans","WV",38.3769,-81.8198
"Lavalette","WV",38.3224,-82.4479
"Ward","WV",38.2465,-81.3882
"East Dailey","WV",38.7795,-79.8911
"Pineville","WV",37.5845,-81.5354
"Kistler","WV",37.7656,-81.8578
"Rockport","WV",39.0742,-81.5532
"Galloway","WV",39.2339,-80.1277
"Parsons","WV",39.0942,-79.6786
"Corinne","WV",37.5709,-81.3615
"Covel","WV",37.4907,-81.3196
"White Sulphur Springs","WV",37.7963,-80.3016
"Buffalo","WV",38.6117,-81.982
"Paden City","WV",39.6035,-80.9351
"Evans","WV",38.8204,-81.7796
"Pruntytown","WV",39.334,-80.0767
"Huttonsville","WV",38.7138,-79.9766
"Pine Grove","WV",39.5642,-80.6825
"Brenton","WV",37.6004,-81.635
"Bramwell","WV",37.327,-81.313
"Delbarton","WV",37.7052,-82.1861
"Sistersville","WV",39.5598,-80.9987
"Huntington","WV",38.4109,-82.4344
"Hico","WV",38.1166,-81.0112
"Pullman","WV",39.188,-80.949
"Accoville","WV",37.7653,-81.827
"Bowden","WV",38.9092,-79.7089
"Mount Carbon","WV",38.1443,-81.289
"Alum Bridge","WV",39.0393,-80.6551
"Winfield","WV",38.5285,-81.8861
"Fairlea","WV",37.7756,-80.4582
"Handley","WV",38.1863,-81.3673
"Gilbert","WV",37.6142,-81.8689
"Rivesville","WV",39.5319,-80.1205
"Kearneysville","WV",39.3882,-77.8856
"Proctor","WV",39.7117,-80.8237
"Frost","WV",38.2707,-79.8806
"Griffithsville","WV",38.2387,-81.9893
"Belle","WV",38.2337,-81.5387
"Old Fields","WV",39.1348,-78.9497
"Alexander","WV",38.7829,-80.2226
"Pike","WV",39.2834,-81.0815
"Westover","WV",39.6324,-79.9773
"Alderson","WV",37.7277,-80.6436
"Crab Orchard","WV",37.741,-81.23
"Malden","WV",38.3007,-81.5571
"Enterprise","WV",39.4197,-80.2834
"Beverly","WV",38.844,-79.8719
"Charleston","WV",38.3484,-81.6323
"Brohard","WV",39.0365,-81.1762
"Chelyan","WV",38.1958,-81.4928
"Lindside","WV",37.4537,-80.6698
"Meadow Creek","WV",37.8101,-80.9231
"Asbury","WV",37.8198,-80.5592
"Auburn","WV",39.0961,-80.8562
"Spelter","WV",39.3431,-80.3163
"Sarah Ann","WV",37.7086,-81.9881
"Branchland","WV",38.2209,-82.2038
"Carpendale","WV",39.6278,-78.7896
"Pax","WV",37.9097,-81.2648
"Farmington","WV",39.512,-80.2515
"Kimberly","WV",38.1407,-81.2966
"Danville","WV",38.0808,-81.8342
"MacArthur","WV",37.7553,-81.2078
"Grafton","WV",39.3409,-80.0162
"Tunnelton","WV",39.3929,-79.7466
"Oceana","WV",37.6927,-81.6324
"Leopold","WV",39.1254,-80.7407
"Lost City","WV",38.9298,-78.8342
"New Cumberland","WV",40.5072,-80.6115
"Valley Grove","WV",40.0901,-80.569
"Ravenswood","WV",38.9561,-81.7619
"Ingleside","WV",37.3148,-81.0523
"Annamoriah","WV",38.9406,-81.2271
"Smithers","WV",38.1768,-81.3048
"Hilltop","WV",37.9392,-81.1527
"Barboursville","WV",38.4061,-82.297
"Crum","WV",37.9095,-82.447
"Falls View","WV",38.1297,-81.2539
"Saint George","WV",39.1662,-79.6987
"Kingston","WV",37.9737,-81.3046
"Weston","WV",39.039,-80.4616
"Bruceton Mills","WV",39.6594,-79.6406
"West Union","WV",39.2963,-80.7751
"Ferrellsburg","WV",38.0251,-82.1054
"Rupert","WV",37.9649,-80.687
"Worthington","WV",39.4568,-80.2636
"Whitmer","WV",38.8149,-79.5451
"Four States","WV",39.4798,-80.3098
"Harrisville","WV",39.2104,-81.0485
"Henderson","WV",38.8304,-82.136
"Fort Gay","WV",38.1202,-82.5953
"Swandale","WV",38.4707,-80.9595
"Birch River","WV",38.4961,-80.7497
"Cheat Lake","WV",39.6672,-79.8565
"Walton","WV",38.639,-81.4021
"Morgantown","WV",39.638,-79.9468
"Marlinton","WV",38.2246,-80.0906
"Capon Bridge","WV",39.2998,-78.4337
"Piney View","WV",37.835,-81.1275
"Boomer","WV",38.1516,-81.2825
"Sweet Springs","WV",37.6285,-80.2414
"Clearview","WV",40.1399,-80.6898
"Nallen","WV",38.1107,-80.877
"Arbovale","WV",38.4353,-79.8116
"Ridgeview","WV",38.1384,-81.7596
"Washington","WV",39.2422,-81.6679
"Folsom","WV",39.4706,-80.5204
"Diana","WV",38.5737,-80.4565
"Lorentz","WV",39.0109,-80.3023
"Amherstdale","WV",37.78,-81.8182
"Bradshaw","WV",37.3534,-81.8012
